[
  {
    "id": "043f55c1-c880-4b13-b543-2c1dcfd9bfc2",
    "name": "ATM",
    "address": {
      "addressLine1": "Kleine Wittenburgerstraat 14",
      "addressLine3": "Amsterdam",
      "postalCode": "1018 LV",
      "country": "The Netherlands"
    },
    "latitude": 52.369836,
    "longitude": 4.919731,
    "placeType": "atm"
  },
  {
    "id": "5a8c595e-91ec-423e-9f2a-cb5674ef926c",
    "name": "ATM",
    "address": {
      "addressLine1": "Prinsessekade 5",
      "addressLine3": "Leiden",
      "postalCode": "2312 DA",
      "country": "The Netherlands"
    },
    "latitude": 52.16135,
    "longitude": 4.485585,
    "placeType": "atm"
  },
  {
    "id": "12e9fb39-7db4-4038-bbcd-f70dad312dcf",
    "name": "ATM",
    "address": {
      "addressLine1": "Oudorperplein 11",
      "addressLine3": "Alkmaar",
      "postalCode": "1823 HA",
      "country": "The Netherlands"
    },
    "latitude": 52.634063,
    "longitude": 4.765965,
    "placeType": "atm"
  },
  {
    "id": "e6678c57-7b88-4b12-ab2f-b247b639386b",
    "name": "ATM",
    "address": {
      "addressLine1": "Jan Heijnsstraat 10",
      "addressLine3": "Tilburg",
      "postalCode": "5041 GB",
      "country": "The Netherlands"
    },
    "latitude": 51.563306,
    "longitude": 5.074364,
    "placeType": "atm"
  },
  {
    "id": "6d6751a7-e061-437a-a3fd-0cbc11afbf8f",
    "name": "ATM",
    "address": {
      "addressLine1": "Westvoorstraat 50",
      "addressLine3": "Dinteloord",
      "postalCode": "4671 CE",
      "country": "The Netherlands"
    },
    "latitude": 51.636051,
    "longitude": 4.370195,
    "placeType": "atm"
  },
  {
    "id": "7dc659fe-9a46-4ce6-a44b-9e31c44ad28f",
    "name": "ATM",
    "address": {
      "addressLine1": "Dasstraat 12",
      "addressLine3": "Delft",
      "postalCode": "2623 CC",
      "country": "The Netherlands"
    },
    "latitude": 51.985307,
    "longitude": 4.360437,
    "placeType": "atm"
  },
  {
    "id": "fbaff333-519e-447b-93d0-c68cf7a298d1",
    "name": "ATM",
    "address": {
      "addressLine1": "Gulden Winckelplantsoen 5",
      "addressLine3": "Amsterdam",
      "postalCode": "1055 EK",
      "country": "The Netherlands"
    },
    "latitude": 52.377966,
    "longitude": 4.846911,
    "placeType": "atm"
  },
  {
    "id": "438bf7b2-3d47-40a9-8b30-8b66c328286e",
    "name": "ATM",
    "address": {
      "addressLine1": "Sint Jacobsstraat 8",
      "addressLine3": "Utrecht",
      "postalCode": "3511 BS",
      "country": "The Netherlands"
    },
    "latitude": 52.0938349,
    "longitude": 5.1121709,
    "placeType": "atm"
  },
  {
    "id": "fd5c1af2-587f-4dbe-ac84-919e79865ce5",
    "name": "ATM",
    "address": {
      "addressLine1": "Wethouder Sangersstraat 170",
      "addressLine3": "Beek",
      "postalCode": "6191 NA",
      "country": "The Netherlands"
    },
    "latitude": 50.949813,
    "longitude": 5.795133,
    "placeType": "atm"
  },
  {
    "id": "94b3d63b-76c1-4985-a4d0-80ea617a98f0",
    "name": "ATM",
    "address": {
      "addressLine1": "Weversstraat 3",
      "addressLine3": "Beilen",
      "postalCode": "9411 NC",
      "country": "The Netherlands"
    },
    "latitude": 52.860623,
    "longitude": 6.515982,
    "placeType": "atm"
  },
  {
    "id": "4ed2451c-ecb7-4a3b-b898-af7681007b70",
    "name": "ATM",
    "address": {
      "addressLine1": "Hoogstraat 8",
      "addressLine3": "Edam",
      "postalCode": "1135 BZ",
      "country": "The Netherlands"
    },
    "latitude": 52.511969,
    "longitude": 5.04942,
    "placeType": "atm"
  },
  {
    "id": "06de411f-3c42-472e-85ac-6dd4a415e276",
    "name": "ATM",
    "address": {
      "addressLine1": "Buikslotermeerplein 310",
      "addressLine3": "Amsterdam",
      "postalCode": "1025 GB",
      "country": "The Netherlands"
    },
    "latitude": 52.397364,
    "longitude": 4.939704,
    "placeType": "atm"
  },
  {
    "id": "501108ca-2eff-47ad-bca5-5279eb3ee9ed",
    "name": "ATM",
    "address": {
      "addressLine1": "Parkweg 30",
      "addressLine3": "Voorburg",
      "postalCode": "2271 AK",
      "country": "The Netherlands"
    },
    "latitude": 52.067843,
    "longitude": 4.362413,
    "placeType": "atm"
  },
  {
    "id": "2807d1cb-fed0-4927-97e9-a6ea220b2086",
    "name": "ATM",
    "address": {
      "addressLine1": "Gouden Rijderplein 1",
      "addressLine3": "Delfgauw",
      "postalCode": "2645 EX",
      "country": "The Netherlands"
    },
    "latitude": 52.00528,
    "longitude": 4.391488,
    "placeType": "atm"
  },
  {
    "id": "ac5bda38-820e-4681-9585-0a347efc1890",
    "name": "ATM",
    "address": {
      "addressLine1": "Langestraat 5",
      "addressLine3": "'s-Gravendeel",
      "postalCode": "3295 BJ",
      "country": "The Netherlands"
    },
    "latitude": 51.778547,
    "longitude": 4.617146,
    "placeType": "atm"
  },
  {
    "id": "637c034d-98f5-41a4-8523-1e15d5f17477",
    "name": "ATM",
    "address": {
      "addressLine1": "Heuvel 81",
      "addressLine3": "Geldrop",
      "postalCode": "5664 HN",
      "country": "The Netherlands"
    },
    "latitude": 51.422861,
    "longitude": 5.558771,
    "placeType": "atm"
  },
  {
    "id": "b757f26c-6744-4784-93ad-214d80c786c9",
    "name": "ATM",
    "address": {
      "addressLine1": "Mathenesserplein 100",
      "addressLine3": "Rotterdam",
      "postalCode": "3023 LA",
      "country": "The Netherlands"
    },
    "latitude": 51.916482,
    "longitude": 4.445658,
    "placeType": "atm"
  },
  {
    "id": "064b9800-8f28-4f29-a910-2124cbae6863",
    "name": "ATM",
    "address": {
      "addressLine1": "Doctor Slotemaker de Bruïneplein 31",
      "addressLine3": "Veenendaal",
      "postalCode": "3904 CX",
      "country": "The Netherlands"
    },
    "latitude": 52.018023,
    "longitude": 5.541612,
    "placeType": "atm"
  },
  {
    "id": "4f993bfc-2a3d-4b66-9331-07335de2469b",
    "name": "ATM",
    "address": {
      "addressLine1": "Lindeplein 3A",
      "addressLine3": "Brunssum",
      "postalCode": "6444 AT",
      "country": "The Netherlands"
    },
    "latitude": 50.943978,
    "longitude": 5.970067,
    "placeType": "atm"
  },
  {
    "id": "5758f82f-11f1-4e30-8013-8971f4a8a2fa",
    "name": "ATM",
    "address": {
      "addressLine1": "Händelplein 21",
      "addressLine3": "Nieuw-Vennep",
      "postalCode": "2151 NL",
      "country": "The Netherlands"
    },
    "latitude": 52.271095,
    "longitude": 4.619902,
    "placeType": "atm"
  },
  {
    "id": "aab50c41-70e0-4dc6-a62d-5abe44c95757",
    "name": "ATM",
    "address": {
      "addressLine1": "Honigmannstraat 44",
      "addressLine3": "Heerlen",
      "postalCode": "6411 LM",
      "country": "The Netherlands"
    },
    "latitude": 50.8885169,
    "longitude": 5.9753429,
    "placeType": "atm"
  },
  {
    "id": "50c9c0cf-09a1-4f8e-a0f4-5beed29f4a97",
    "name": "ATM",
    "address": {
      "addressLine1": "Helmstraat 4",
      "addressLine3": "Maastricht",
      "postalCode": "6211 TA",
      "country": "The Netherlands"
    },
    "latitude": 50.849783,
    "longitude": 5.689416,
    "placeType": "atm"
  },
  {
    "id": "94c0e3c8-dc44-44e0-aba0-4332bf887394",
    "name": "ATM",
    "address": {
      "addressLine1": "Hoofdstraat 76A",
      "addressLine3": "De Lier",
      "postalCode": "2678 CL",
      "country": "The Netherlands"
    },
    "latitude": 51.9747695,
    "longitude": 4.2486117,
    "placeType": "atm"
  },
  {
    "id": "74911127-4f33-4c7f-a1c3-8edaa4492653",
    "name": "ATM",
    "address": {
      "addressLine1": "Schoolweg 2B",
      "addressLine3": "Elst (Utr)",
      "postalCode": "3921 CE",
      "country": "The Netherlands"
    },
    "latitude": 51.9851395,
    "longitude": 5.4940764,
    "placeType": "atm"
  },
  {
    "id": "adf0ced4-3fc5-4d65-a1dd-88bb31c7dffd",
    "name": "ATM",
    "address": {
      "addressLine1": "Johannes van Vlotenlaan 1",
      "addressLine3": "Deventer",
      "postalCode": "7412 SB",
      "country": "The Netherlands"
    },
    "latitude": 52.266119,
    "longitude": 6.142045,
    "placeType": "atm"
  },
  {
    "id": "e58d3a5c-d2e4-4d9c-97e2-1b8a37b921d4",
    "name": "ATM",
    "address": {
      "addressLine1": "Burchtplein 13",
      "addressLine3": "Etten-Leur",
      "postalCode": "4873 BS",
      "country": "The Netherlands"
    },
    "latitude": 51.568474,
    "longitude": 4.6393,
    "placeType": "atm"
  },
  {
    "id": "98c47a0b-9e36-4b54-9b3e-1a89f17b2cba",
    "name": "ATM",
    "address": {
      "addressLine1": "Hoogstraat 100",
      "addressLine3": "Eindhoven",
      "postalCode": "5615 PS",
      "country": "The Netherlands"
    },
    "latitude": 51.432433,
    "longitude": 5.470109,
    "placeType": "atm"
  },
  {
    "id": "c4195c3f-c10c-4cc9-b653-fe44b23b770c",
    "name": "ATM",
    "address": {
      "addressLine1": "Steenweg 8",
      "addressLine3": "Zaltbommel",
      "postalCode": "5301 HL",
      "country": "The Netherlands"
    },
    "latitude": 51.809604,
    "longitude": 5.241613,
    "placeType": "atm"
  },
  {
    "id": "02fa5e04-2a9c-4fb6-af80-a2d3ced74b59",
    "name": "ATM",
    "address": {
      "addressLine1": "De Kolk 3",
      "addressLine3": "Delden",
      "postalCode": "7491 XN",
      "country": "The Netherlands"
    },
    "latitude": 52.261256,
    "longitude": 6.708531,
    "placeType": "atm"
  },
  {
    "id": "15eaffa0-cc48-41d8-a184-9f37d7ed60f1",
    "name": "ATM",
    "address": {
      "addressLine1": "Jan Evertsenstraat 24",
      "addressLine3": "Amsterdam",
      "postalCode": "1056 EC",
      "country": "The Netherlands"
    },
    "latitude": 52.371507,
    "longitude": 4.857549,
    "placeType": "atm"
  },
  {
    "id": "0eb25c1d-c0a3-4c5a-8db2-828d9073f142",
    "name": "ATM",
    "address": {
      "addressLine1": "Pottenbakkerssingel 2",
      "addressLine3": "Middelburg",
      "postalCode": "4331 NA",
      "country": "The Netherlands"
    },
    "latitude": 51.49606,
    "longitude": 3.607443,
    "placeType": "atm"
  },
  {
    "id": "1b966c47-0c9e-4375-9242-690ac9f43fb9",
    "name": "ATM",
    "address": {
      "addressLine1": "Bellevue 3",
      "addressLine3": "Groesbeek",
      "postalCode": "6561 CV",
      "country": "The Netherlands"
    },
    "latitude": 51.777403,
    "longitude": 5.932408,
    "placeType": "atm"
  },
  {
    "id": "9b7101a1-3d13-4d52-aa5f-e6d695550a5c",
    "name": "ATM",
    "address": {
      "addressLine1": "Bankstede 1",
      "addressLine3": "Nieuwegein",
      "postalCode": "3431 HN",
      "country": "The Netherlands"
    },
    "latitude": 52.029542,
    "longitude": 5.082906,
    "placeType": "atm"
  },
  {
    "id": "db5fb3d2-3e1f-49bb-974f-7292a81369fc",
    "name": "ATM",
    "address": {
      "addressLine1": "Binnenhof 1",
      "addressLine3": "Driebergen-Rijsenburg",
      "postalCode": "3971 EE",
      "country": "The Netherlands"
    },
    "latitude": 52.054649,
    "longitude": 5.287419,
    "placeType": "atm"
  },
  {
    "id": "640aebba-d987-49ff-acf7-93c4e7d39d56",
    "name": "ATM",
    "address": {
      "addressLine1": "Bijlmerplein 526",
      "addressLine3": "Amsterdam-Zuidoost",
      "postalCode": "1102 DP",
      "country": "The Netherlands"
    },
    "latitude": 52.315597,
    "longitude": 4.955136,
    "placeType": "atm"
  },
  {
    "id": "abd297bb-a232-4fb0-adfa-475f443cfd7f",
    "name": "ATM",
    "address": {
      "addressLine1": "Goeverneurlaan 664",
      "addressLine3": "Den Haag",
      "postalCode": "2523 CS",
      "country": "The Netherlands"
    },
    "latitude": 52.056134,
    "longitude": 4.315475,
    "placeType": "atm"
  },
  {
    "id": "8f63f672-9581-42d9-9b9c-5e3f037f3b7d",
    "name": "ATM",
    "address": {
      "addressLine1": "Haarlemmerweg 520",
      "addressLine3": "Amsterdam",
      "postalCode": "1014 BL",
      "country": "The Netherlands"
    },
    "latitude": 52.385437,
    "longitude": 4.851066,
    "placeType": "atm"
  },
  {
    "id": "c6daebb5-846b-452a-a21d-4b1c0f660776",
    "name": "ATM",
    "address": {
      "addressLine1": "Koningin Julianalaan 263",
      "addressLine3": "Voorburg",
      "postalCode": "2273 JG",
      "country": "The Netherlands"
    },
    "latitude": 52.075693,
    "longitude": 4.359622,
    "placeType": "atm"
  },
  {
    "id": "1e5e001f-86c6-4b0f-a050-19fe0dfbf8e3",
    "name": "ATM",
    "address": {
      "addressLine1": "Botter 4431",
      "addressLine3": "Lelystad",
      "postalCode": "8243 JE",
      "country": "The Netherlands"
    },
    "latitude": 52.502846,
    "longitude": 5.461932,
    "placeType": "atm"
  },
  {
    "id": "11d365be-b0c1-4d4b-818e-1fa18c306a03",
    "name": "ATM",
    "address": {
      "addressLine1": "Eems 6",
      "addressLine3": "Drachten",
      "postalCode": "9204 JX",
      "country": "The Netherlands"
    },
    "latitude": 53.100501,
    "longitude": 6.075216,
    "placeType": "atm"
  },
  {
    "id": "42125150-cb83-4a73-8338-b84492848c8d",
    "name": "ATM",
    "address": {
      "addressLine1": "Raadhuislaan 1K",
      "addressLine3": "Oss",
      "postalCode": "5341 GL",
      "country": "The Netherlands"
    },
    "latitude": 51.765385,
    "longitude": 5.525249,
    "placeType": "atm"
  },
  {
    "id": "79f72353-5b75-4ca7-95a9-445980ece071",
    "name": "ATM",
    "address": {
      "addressLine1": "Dijkstraat 102",
      "addressLine3": "Honselersdijk",
      "postalCode": "2675 AZ",
      "country": "The Netherlands"
    },
    "latitude": 52.008507,
    "longitude": 4.229102,
    "placeType": "atm"
  },
  {
    "id": "619f87ef-b6bc-4cbc-9094-d28d4245b255",
    "name": "ATM",
    "address": {
      "addressLine1": "Geesterduin 27",
      "addressLine3": "Castricum",
      "postalCode": "1902 EJ",
      "country": "The Netherlands"
    },
    "latitude": 52.550939,
    "longitude": 4.674296,
    "placeType": "atm"
  },
  {
    "id": "d8cc24d4-208c-4cd5-9cbd-607c0a85fdc4",
    "name": "ATM",
    "address": {
      "addressLine1": "Oudenoord 1",
      "addressLine3": "Utrecht",
      "postalCode": "3513 EG",
      "country": "The Netherlands"
    },
    "latitude": 52.0970886,
    "longitude": 5.1133961,
    "placeType": "atm"
  },
  {
    "id": "7ffeb05f-a7af-4d84-a316-27f64f6573dc",
    "name": "ATM",
    "address": {
      "addressLine1": "Johan de Wittstraat 1",
      "addressLine3": "Wassenaar",
      "postalCode": "2242 LA",
      "country": "The Netherlands"
    },
    "latitude": 52.142665,
    "longitude": 4.396278,
    "placeType": "atm"
  },
  {
    "id": "de9c9652-e875-4d07-bd1a-cdb8ae0a0367",
    "name": "ATM",
    "address": {
      "addressLine1": "Dorpsstraat 42",
      "addressLine3": "Sint Willebrord",
      "postalCode": "4711 NH",
      "country": "The Netherlands"
    },
    "latitude": 51.547213,
    "longitude": 4.591792,
    "placeType": "atm"
  },
  {
    "id": "f247d19e-aa1b-44a7-ad1c-0e6c1ed886f5",
    "name": "ATM",
    "address": {
      "addressLine1": "Woenselse Markt 5",
      "addressLine3": "Eindhoven",
      "postalCode": "5612 CP",
      "country": "The Netherlands"
    },
    "latitude": 51.451598,
    "longitude": 5.472316,
    "placeType": "atm"
  },
  {
    "id": "bb9f9f77-1841-43dd-a17b-ec883cceb2c0",
    "name": "ATM",
    "address": {
      "addressLine1": "Oude Gemeneweg 5-7",
      "addressLine3": "Hazerswoude-Dorp",
      "postalCode": "2391 BE",
      "country": "The Netherlands"
    },
    "latitude": 52.0971318,
    "longitude": 4.591724,
    "placeType": "atm"
  },
  {
    "id": "e42a98e8-09c8-4d03-b6a8-6bc17e0620cf",
    "name": "ATM",
    "address": {
      "addressLine1": "Maasstraat 47",
      "addressLine3": "Amsterdam",
      "postalCode": "1078 HD",
      "country": "The Netherlands"
    },
    "latitude": 52.346015,
    "longitude": 4.895192,
    "placeType": "atm"
  },
  {
    "id": "da110841-3162-4981-af62-6664e3a3d1af",
    "name": "ATM",
    "address": {
      "addressLine1": "Rozenstraat 29",
      "addressLine3": "Didam",
      "postalCode": "6942 WE",
      "country": "The Netherlands"
    },
    "latitude": 51.9420032,
    "longitude": 6.1335453,
    "placeType": "atm"
  },
  {
    "id": "ae15adfa-c110-40a1-b911-f03f080823e8",
    "name": "ATM",
    "address": {
      "addressLine1": "Sperwerlaan 12",
      "addressLine3": "Amsterdam",
      "postalCode": "1021 EN",
      "country": "The Netherlands"
    },
    "latitude": 52.384997,
    "longitude": 4.914577,
    "placeType": "atm"
  },
  {
    "id": "2b67f438-08e9-401d-b99f-42bcdac013d7",
    "name": "ATM",
    "address": {
      "addressLine1": "Oude Ebbingestraat 12",
      "addressLine3": "Groningen",
      "postalCode": "9712 HJ",
      "country": "The Netherlands"
    },
    "latitude": 53.219319,
    "longitude": 6.56671,
    "placeType": "atm"
  },
  {
    "id": "00de4058-92e6-446d-b896-e7a47f01255b",
    "name": "ATM",
    "address": {
      "addressLine1": "Markiezaatsweg 3",
      "addressLine3": "Bergen op Zoom",
      "postalCode": "4615 PA",
      "country": "The Netherlands"
    },
    "latitude": 51.492225,
    "longitude": 4.274877,
    "placeType": "atm"
  },
  {
    "id": "8c41d613-bcc9-483e-959f-d52712c6103b",
    "name": "ATM",
    "address": {
      "addressLine1": "Boterhoek 17",
      "addressLine3": "Best",
      "postalCode": "5683 AS",
      "country": "The Netherlands"
    },
    "latitude": 51.511134,
    "longitude": 5.394079,
    "placeType": "atm"
  },
  {
    "id": "3885cf07-3c01-4ca0-8fbe-94ffca1aaf3e",
    "name": "ATM",
    "address": {
      "addressLine1": "Praamplein 4A",
      "addressLine3": "Aalsmeer",
      "postalCode": "1431 CV",
      "country": "The Netherlands"
    },
    "latitude": 52.268243,
    "longitude": 4.746486,
    "placeType": "atm"
  },
  {
    "id": "994065b7-a574-4087-b1e5-a4ab3357e1c2",
    "name": "ATM",
    "address": {
      "addressLine1": "Kruisstraat 10",
      "addressLine3": "Haarlem",
      "postalCode": "2011 PX",
      "country": "The Netherlands"
    },
    "latitude": 52.384466,
    "longitude": 4.635779,
    "placeType": "atm"
  },
  {
    "id": "4271ec07-3974-4fee-ac9a-a8ca463e7b76",
    "name": "ATM",
    "address": {
      "addressLine1": "'t Plateau 14",
      "addressLine3": "Spijkenisse",
      "postalCode": "3202 GM",
      "country": "The Netherlands"
    },
    "latitude": 51.854636,
    "longitude": 4.316897,
    "placeType": "atm"
  },
  {
    "id": "217aaf2c-cb64-4fb8-a9cf-5fa533a0f98d",
    "name": "ATM",
    "address": {
      "addressLine1": "Hoefbladplein 4",
      "addressLine3": "Pijnacker",
      "postalCode": "2643 KD",
      "country": "The Netherlands"
    },
    "latitude": 52.004049,
    "longitude": 4.443021,
    "placeType": "atm"
  },
  {
    "id": "b544b0ad-7769-4407-b6ef-0d743c0e29a5",
    "name": "ATM",
    "address": {
      "addressLine1": "Akerstraat Noord 282",
      "addressLine3": "Hoensbroek",
      "postalCode": "6431 HW",
      "country": "The Netherlands"
    },
    "latitude": 50.926529,
    "longitude": 5.942093,
    "placeType": "atm"
  },
  {
    "id": "e63a3fb9-a5a4-46e3-b62d-6a6bcb40b002",
    "name": "ATM",
    "address": {
      "addressLine1": "Dorpsweg 40",
      "addressLine3": "Sommelsdijk",
      "postalCode": "3245 VC",
      "country": "The Netherlands"
    },
    "latitude": 51.755876,
    "longitude": 4.150973,
    "placeType": "atm"
  },
  {
    "id": "936a18fb-8f0b-4621-9929-26f1f63c1385",
    "name": "ATM",
    "address": {
      "addressLine1": "Zeilmakerstraat 2",
      "addressLine3": "Katwijk",
      "postalCode": "2222 AA",
      "country": "The Netherlands"
    },
    "latitude": 52.202494,
    "longitude": 4.427314,
    "placeType": "atm"
  },
  {
    "id": "32bab4c1-240d-487e-9f5f-03944de2033a",
    "name": "ATM",
    "address": {
      "addressLine1": "Dorpsstraat 34",
      "addressLine3": "Putten",
      "postalCode": "3881 BD",
      "country": "The Netherlands"
    },
    "latitude": 52.2605422,
    "longitude": 5.6051248,
    "placeType": "atm"
  },
  {
    "id": "e034ba2d-7c46-4711-8dc5-da9418139624",
    "name": "ATM",
    "address": {
      "addressLine1": "Stadspoort 1",
      "addressLine3": "Ede",
      "postalCode": "6716 RH",
      "country": "The Netherlands"
    },
    "latitude": 52.017515,
    "longitude": 5.651072,
    "placeType": "atm"
  },
  {
    "id": "5c0b4dbb-1ef5-44cd-8159-642a90fc250c",
    "name": "ATM",
    "address": {
      "addressLine1": "Roda J.C. Ring 5",
      "addressLine3": "Kerkrade",
      "postalCode": "6466 NH",
      "country": "The Netherlands"
    },
    "latitude": 50.857276,
    "longitude": 6.007516,
    "placeType": "atm"
  },
  {
    "id": "561ed213-3a70-4a30-b0e0-8f2c649fe740",
    "name": "ATM",
    "address": {
      "addressLine1": "Sarphatistraat 141",
      "addressLine3": "Amsterdam",
      "postalCode": "1018 GD",
      "country": "The Netherlands"
    },
    "latitude": 52.362283,
    "longitude": 4.912469,
    "placeType": "atm"
  },
  {
    "id": "b3e97134-9900-47df-a8fe-d0d4337d4f75",
    "name": "ATM",
    "address": {
      "addressLine1": "Piusplein 20",
      "addressLine3": "Bergen op Zoom",
      "postalCode": "4621 EN",
      "country": "The Netherlands"
    },
    "latitude": 51.492794,
    "longitude": 4.300025,
    "placeType": "atm"
  },
  {
    "id": "9d59d6c1-0572-4392-8a74-d5c519d1670e",
    "name": "ATM",
    "address": {
      "addressLine1": "Dennenlaan 45",
      "addressLine3": "Zwanenburg",
      "postalCode": "1161 CL",
      "country": "The Netherlands"
    },
    "latitude": 52.378952,
    "longitude": 4.750236,
    "placeType": "atm"
  },
  {
    "id": "ad680609-0f56-4237-8b7f-01660e2eb8e8",
    "name": "ATM",
    "address": {
      "addressLine1": "Lange Nobelstraat 6-12",
      "addressLine3": "Zierikzee",
      "postalCode": "4301 HE",
      "country": "The Netherlands"
    },
    "latitude": 51.65109,
    "longitude": 3.920099,
    "placeType": "atm"
  },
  {
    "id": "91d326ab-9db2-4f3f-b1bb-6bf99f08d6b8",
    "name": "ATM",
    "address": {
      "addressLine1": "Sint Willibrordusstraat 45",
      "addressLine3": "Berghem",
      "postalCode": "5351 EE",
      "country": "The Netherlands"
    },
    "latitude": 51.770308,
    "longitude": 5.567401,
    "placeType": "atm"
  },
  {
    "id": "2fa8586e-f224-4c09-84ac-b0216889173a",
    "name": "ATM",
    "address": {
      "addressLine1": "Forum 16",
      "addressLine3": "Assen",
      "postalCode": "9401 EE",
      "country": "The Netherlands"
    },
    "latitude": 52.995835,
    "longitude": 6.560904,
    "placeType": "atm"
  },
  {
    "id": "fb6663da-759a-4fab-b9db-c340cc6ac3b7",
    "name": "ATM",
    "address": {
      "addressLine1": "Koekoeklaan 88",
      "addressLine3": "Bussum",
      "postalCode": "1403 EH",
      "country": "The Netherlands"
    },
    "latitude": 52.2685,
    "longitude": 5.184334,
    "placeType": "atm"
  },
  {
    "id": "5d5de45a-b292-4f3d-802c-91057e10ae21",
    "name": "ATM",
    "address": {
      "addressLine1": "Burgemeester Wallerstraat 131",
      "addressLine3": "Oldenzaal",
      "postalCode": "7574 AM",
      "country": "The Netherlands"
    },
    "latitude": 52.300957,
    "longitude": 6.93586,
    "placeType": "atm"
  },
  {
    "id": "602391aa-2348-4b0d-9ef8-578ac2732c31",
    "name": "ATM",
    "address": {
      "addressLine1": "Vasteland 108",
      "addressLine3": "Rotterdam",
      "postalCode": "3011 BP",
      "country": "The Netherlands"
    },
    "latitude": 51.91125,
    "longitude": 4.478079,
    "placeType": "atm"
  },
  {
    "id": "c8a9040b-1cdd-4f6a-83be-f97a665a3a75",
    "name": "ATM",
    "address": {
      "addressLine1": "Meeuwerderweg 50-52",
      "addressLine3": "Groningen",
      "postalCode": "9724 EV",
      "country": "The Netherlands"
    },
    "latitude": 53.213122,
    "longitude": 6.578997,
    "placeType": "atm"
  },
  {
    "id": "37acb34e-5322-49aa-8b3f-e01e99aabf7d",
    "name": "ATM",
    "address": {
      "addressLine1": "Spoorwegstraat 1",
      "addressLine3": "Haarlem",
      "postalCode": "2015 BL",
      "country": "The Netherlands"
    },
    "latitude": 52.387122,
    "longitude": 4.622365,
    "placeType": "atm"
  },
  {
    "id": "3bad9488-d791-42f5-ac05-a0953c911042",
    "name": "ATM",
    "address": {
      "addressLine1": "Krispijnseweg 39",
      "addressLine3": "Dordrecht",
      "postalCode": "3314 KA",
      "country": "The Netherlands"
    },
    "latitude": 51.805226,
    "longitude": 4.6633,
    "placeType": "atm"
  },
  {
    "id": "5cd88c52-c546-45df-9949-d1f0970144b4",
    "name": "ATM",
    "address": {
      "addressLine1": "Gedempt Kanaal 99",
      "addressLine3": "Middelharnis",
      "postalCode": "3241 DB",
      "country": "The Netherlands"
    },
    "latitude": 51.761,
    "longitude": 4.156019,
    "placeType": "atm"
  },
  {
    "id": "539c5fba-bc5e-4126-9b1d-736518206f5d",
    "name": "ATM",
    "address": {
      "addressLine1": "Belgiëplein 107",
      "addressLine3": "Amsterdam",
      "postalCode": "1066 RC",
      "country": "The Netherlands"
    },
    "latitude": 52.345797,
    "longitude": 4.810903,
    "placeType": "atm"
  },
  {
    "id": "318c7d7b-7325-4efb-92c7-294a5bd70263",
    "name": "ATM",
    "address": {
      "addressLine1": "Jan van Goijenstraat 14",
      "addressLine3": "Papendrecht",
      "postalCode": "3351 JN",
      "country": "The Netherlands"
    },
    "latitude": 51.836239,
    "longitude": 4.685164,
    "placeType": "atm"
  },
  {
    "id": "9154e02d-2699-4fe0-9e06-339f6acad285",
    "name": "ATM",
    "address": {
      "addressLine1": "Wendtsteinweg 64",
      "addressLine3": "Marum",
      "postalCode": "9363 AR",
      "country": "The Netherlands"
    },
    "latitude": 53.144322,
    "longitude": 6.26902,
    "placeType": "atm"
  },
  {
    "id": "421ca549-24cc-4e7e-aec5-6a0a91a00d59",
    "name": "ATM",
    "address": {
      "addressLine1": "Poolsterstraat 40",
      "addressLine3": "Rotterdam",
      "postalCode": "3067 LX",
      "country": "The Netherlands"
    },
    "latitude": 51.9501875,
    "longitude": 4.5536472,
    "placeType": "atm"
  },
  {
    "id": "0047e714-0600-4518-b457-4b033b1f6092",
    "name": "ATM",
    "address": {
      "addressLine1": "Oude Torenstraat 37",
      "addressLine3": "Yerseke",
      "postalCode": "4401 EH",
      "country": "The Netherlands"
    },
    "latitude": 51.491464,
    "longitude": 4.049422,
    "placeType": "atm"
  },
  {
    "id": "fecc5eb9-3104-4adc-9c68-e0622380339a",
    "name": "ATM",
    "address": {
      "addressLine1": "Onderdoor 13",
      "addressLine3": "Houten",
      "postalCode": "3995 DW",
      "country": "The Netherlands"
    },
    "latitude": 52.034765,
    "longitude": 5.168005,
    "placeType": "atm"
  },
  {
    "id": "c015f15d-6ebe-4c56-bdb7-63335e40e050",
    "name": "ATM",
    "address": {
      "addressLine1": "Tarthorst 1219",
      "addressLine3": "Wageningen",
      "postalCode": "6708 HZ",
      "country": "The Netherlands"
    },
    "latitude": 51.978797,
    "longitude": 5.663263,
    "placeType": "atm"
  },
  {
    "id": "9dcdc56d-181a-4188-abcd-539f7cd38786",
    "name": "ATM",
    "address": {
      "addressLine1": "Poldermeesterplein 1",
      "addressLine3": "Aalsmeer",
      "postalCode": "1432 JZ",
      "country": "The Netherlands"
    },
    "latitude": 52.27492,
    "longitude": 4.794484,
    "placeType": "atm"
  },
  {
    "id": "2823ac05-24cb-4996-bd3f-0357588ebbf3",
    "name": "ATM",
    "address": {
      "addressLine1": "Van Hardenbroeklaan 3",
      "addressLine3": "Bunnik",
      "postalCode": "3981 EN",
      "country": "The Netherlands"
    },
    "latitude": 52.067361,
    "longitude": 5.199745,
    "placeType": "atm"
  },
  {
    "id": "711cb62c-04f8-4fb8-aecc-11efa5f289a3",
    "name": "ATM",
    "address": {
      "addressLine1": "Huijbergseweg 21",
      "addressLine3": "Hoogerheide",
      "postalCode": "4631 GC",
      "country": "The Netherlands"
    },
    "latitude": 51.423399,
    "longitude": 4.328928,
    "placeType": "atm"
  },
  {
    "id": "7290652d-372d-4f2b-87cd-4a03da099bcf",
    "name": "ATM",
    "address": {
      "addressLine1": "Kopermolen 7",
      "addressLine3": "Leiden",
      "postalCode": "2317 PA",
      "country": "The Netherlands"
    },
    "latitude": 52.1762685,
    "longitude": 4.5063589,
    "placeType": "atm"
  },
  {
    "id": "7d9ba4e4-2de5-4e1e-a1f8-ed0dafec6986",
    "name": "ATM",
    "address": {
      "addressLine1": "Schapendoesweg 2",
      "addressLine3": "Apeldoorn",
      "postalCode": "7312 EC",
      "country": "The Netherlands"
    },
    "latitude": 52.2088387,
    "longitude": 5.9437249,
    "placeType": "atm"
  },
  {
    "id": "04c97d70-925d-461c-bf7f-505ae64bd15d",
    "name": "ATM",
    "address": {
      "addressLine1": "Willemsplein 38",
      "addressLine3": "Arnhem",
      "postalCode": "6811 KC",
      "country": "The Netherlands"
    },
    "latitude": 51.983088,
    "longitude": 5.905471,
    "placeType": "atm"
  },
  {
    "id": "10d31d3d-aa32-4a41-9ca5-d7b8aeb6168d",
    "name": "ATM",
    "address": {
      "addressLine1": "Bellestein 45-47",
      "addressLine3": "Ede",
      "postalCode": "6714 DP",
      "country": "The Netherlands"
    },
    "latitude": 52.042413,
    "longitude": 5.643973,
    "placeType": "atm"
  },
  {
    "id": "7e7163b2-268c-467b-b1ce-9ea0b42eb415",
    "name": "ATM",
    "address": {
      "addressLine1": "Middelwaard 42",
      "addressLine3": "Zoetermeer",
      "postalCode": "2716 CW",
      "country": "The Netherlands"
    },
    "latitude": 52.056195,
    "longitude": 4.468742,
    "placeType": "atm"
  },
  {
    "id": "d7b2b482-c2df-4fa0-94d0-bdfce1d490f0",
    "name": "ATM",
    "address": {
      "addressLine1": "Liesveld 133B",
      "addressLine3": "Vlaardingen",
      "postalCode": "3131 CK",
      "country": "The Netherlands"
    },
    "latitude": 51.910116,
    "longitude": 4.341176,
    "placeType": "atm"
  },
  {
    "id": "cf722074-b9c6-4749-ba5b-06122c40656c",
    "name": "ATM",
    "address": {
      "addressLine1": "De Kwinkelier 30",
      "addressLine3": "Bilthoven",
      "postalCode": "3722 AR",
      "country": "The Netherlands"
    },
    "latitude": 52.128297,
    "longitude": 5.210706,
    "placeType": "atm"
  },
  {
    "id": "30ec4282-d20d-4e37-abcb-b272ab1435cb",
    "name": "ATM",
    "address": {
      "addressLine1": "Lichtenhorst 1",
      "addressLine3": "Borculo",
      "postalCode": "7271 AE",
      "country": "The Netherlands"
    },
    "latitude": 52.117884,
    "longitude": 6.525361,
    "placeType": "atm"
  },
  {
    "id": "528edf35-1aac-4221-8e5d-35b70e825fda",
    "name": "ATM",
    "address": {
      "addressLine1": "Vrijheidsplein 58-64",
      "addressLine3": "Zeist",
      "postalCode": "3705 PS",
      "country": "The Netherlands"
    },
    "latitude": 52.101421,
    "longitude": 5.245115,
    "placeType": "atm"
  },
  {
    "id": "80c4ce87-7452-4b6f-8f20-ecd90cc77cb6",
    "name": "ATM",
    "address": {
      "addressLine1": "Venne 74",
      "addressLine3": "Winschoten",
      "postalCode": "9671 ET",
      "country": "The Netherlands"
    },
    "latitude": 53.143257,
    "longitude": 7.038008,
    "placeType": "atm"
  },
  {
    "id": "68d4400d-04e0-4066-9c68-5ea071d490d8",
    "name": "ATM",
    "address": {
      "addressLine1": "Prins Frederiklaan 197",
      "addressLine3": "Leidschendam",
      "postalCode": "2263 HA",
      "country": "The Netherlands"
    },
    "latitude": 52.097263,
    "longitude": 4.40334,
    "placeType": "atm"
  },
  {
    "id": "3ab8e2c7-f987-45c1-8999-1cfae2980e17",
    "name": "ATM",
    "address": {
      "addressLine1": "Levendaal 20",
      "addressLine3": "Leiden",
      "postalCode": "2311 JL",
      "country": "The Netherlands"
    },
    "latitude": 52.155183,
    "longitude": 4.493835,
    "placeType": "atm"
  },
  {
    "id": "33f8c1e9-eb5a-4bfc-b793-ce28eb84a6a4",
    "name": "ATM",
    "address": {
      "addressLine1": "Donsvlinder 2",
      "addressLine3": "Bilthoven",
      "postalCode": "3723 TX",
      "country": "The Netherlands"
    },
    "latitude": 52.129569,
    "longitude": 5.190749,
    "placeType": "atm"
  },
  {
    "id": "30e534fb-418a-4255-b63e-94288d84755d",
    "name": "ATM",
    "address": {
      "addressLine1": "Nieuwstraat 45",
      "addressLine3": "Breda",
      "postalCode": "4811 WV",
      "country": "The Netherlands"
    },
    "latitude": 51.587564,
    "longitude": 4.77296,
    "placeType": "atm"
  },
  {
    "id": "73d6ff83-29c8-4181-85e7-118583233265",
    "name": "ATM",
    "address": {
      "addressLine1": "De Loper 85",
      "addressLine3": "Vlaardingen",
      "postalCode": "3137 DD",
      "country": "The Netherlands"
    },
    "latitude": 51.931701,
    "longitude": 4.346158,
    "placeType": "atm"
  },
  {
    "id": "2b0e91c5-7291-44ae-b1fb-d8902f4ab5e2",
    "name": "ATM",
    "address": {
      "addressLine1": "Strijpsestraat 137",
      "addressLine3": "Eindhoven",
      "postalCode": "5616 GM",
      "country": "The Netherlands"
    },
    "latitude": 51.440786,
    "longitude": 5.453711,
    "placeType": "atm"
  },
  {
    "id": "4d8dc27b-52fd-4be6-9858-da421b7bb164",
    "name": "ATM",
    "address": {
      "addressLine1": "Lavendelplantsoen 60",
      "addressLine3": "Almere",
      "postalCode": "1313 GA",
      "country": "The Netherlands"
    },
    "latitude": 52.382337,
    "longitude": 5.198488,
    "placeType": "atm"
  },
  {
    "id": "23fad82c-890e-405a-a2ec-071bd982539e",
    "name": "ATM",
    "address": {
      "addressLine1": "Hoofdstraat 50",
      "addressLine3": "Kerkrade",
      "postalCode": "6461 CS",
      "country": "The Netherlands"
    },
    "latitude": 50.863553,
    "longitude": 6.068134,
    "placeType": "atm"
  },
  {
    "id": "dbfdca1c-c10c-4a38-b426-cb83a1e5cee8",
    "name": "ATM",
    "address": {
      "addressLine1": "Van Oldenbarneveltplein 20",
      "addressLine3": "Dordrecht",
      "postalCode": "3317 EP",
      "country": "The Netherlands"
    },
    "latitude": 51.791785,
    "longitude": 4.663225,
    "placeType": "atm"
  },
  {
    "id": "77ff211a-7a88-48d3-8100-9f3c8f987433",
    "name": "ATM",
    "address": {
      "addressLine1": "Kerklaan 450",
      "addressLine3": "Capelle aan den IJssel",
      "postalCode": "2903 HJ",
      "country": "The Netherlands"
    },
    "latitude": 51.932243,
    "longitude": 4.59093,
    "placeType": "atm"
  },
  {
    "id": "2cb9b1a2-40e0-40fa-a024-5d593c275024",
    "name": "ATM",
    "address": {
      "addressLine1": "Sigmondstraat 52",
      "addressLine3": "Werkendam",
      "postalCode": "4251 ZB",
      "country": "The Netherlands"
    },
    "latitude": 51.809329,
    "longitude": 4.890855,
    "placeType": "atm"
  },
  {
    "id": "a99f5a9a-2c90-4024-9420-5a6e4c64ef89",
    "name": "ATM",
    "address": {
      "addressLine1": "Pieter Jellessingel 11",
      "addressLine3": "Stiens",
      "postalCode": "9051 BV",
      "country": "The Netherlands"
    },
    "latitude": 53.262357,
    "longitude": 5.757992,
    "placeType": "atm"
  },
  {
    "id": "01065527-57f5-43b8-b751-d496707ff9ef",
    "name": "ATM",
    "address": {
      "addressLine1": "Nieuwstraat 370",
      "addressLine3": "Spijkenisse",
      "postalCode": "3201 EG",
      "country": "The Netherlands"
    },
    "latitude": 51.84996,
    "longitude": 4.330697,
    "placeType": "atm"
  },
  {
    "id": "f598b3bc-460b-48ed-ad76-cc6abac74daa",
    "name": "ATM",
    "address": {
      "addressLine1": "Kampsingel 2",
      "addressLine3": "Zevenaar",
      "postalCode": "6901 JE",
      "country": "The Netherlands"
    },
    "latitude": 51.930908,
    "longitude": 6.078225,
    "placeType": "atm"
  },
  {
    "id": "1e8c6c3a-fac2-423f-8a0a-c593fa5a711c",
    "name": "ATM",
    "address": {
      "addressLine1": "Stationsstraat 60",
      "addressLine3": "Maastricht",
      "postalCode": "6221 BR",
      "country": "The Netherlands"
    },
    "latitude": 50.849672,
    "longitude": 5.70099,
    "placeType": "atm"
  },
  {
    "id": "615e6a9c-2947-47e0-adbe-dac908172c54",
    "name": "ATM",
    "address": {
      "addressLine1": "Oudegracht 427",
      "addressLine3": "Utrecht",
      "postalCode": "3511 PJ",
      "country": "The Netherlands"
    },
    "latitude": 52.081767,
    "longitude": 5.122909,
    "placeType": "atm"
  },
  {
    "id": "720ac555-50e6-4717-a25c-89866fa956c6",
    "name": "ATM",
    "address": {
      "addressLine1": "Beethovenstraat 8",
      "addressLine3": "Amsterdam",
      "postalCode": "1077 JG",
      "country": "The Netherlands"
    },
    "latitude": 52.350159,
    "longitude": 4.878119,
    "placeType": "atm"
  },
  {
    "id": "bb53fcbe-8602-4d2f-b4a5-476c42842291",
    "name": "ATM",
    "address": {
      "addressLine1": "Stationsplein 3",
      "addressLine3": "Leiden",
      "postalCode": "2312 AJ",
      "country": "The Netherlands"
    },
    "latitude": 52.165919,
    "longitude": 4.482896,
    "placeType": "atm"
  },
  {
    "id": "57824249-907d-443c-a3c1-a3a463943e24",
    "name": "ATM",
    "address": {
      "addressLine1": "De Passage 26",
      "addressLine3": "Mijdrecht",
      "postalCode": "3641 AK",
      "country": "The Netherlands"
    },
    "latitude": 52.206392,
    "longitude": 4.866137,
    "placeType": "atm"
  },
  {
    "id": "d616d4dc-959f-4a90-ac96-10ca5f8c3260",
    "name": "ATM",
    "address": {
      "addressLine1": "Hoofdweg 164A",
      "addressLine3": "Siddeburen",
      "postalCode": "9628 CT",
      "country": "The Netherlands"
    },
    "latitude": 53.24817,
    "longitude": 6.868891,
    "placeType": "atm"
  },
  {
    "id": "4436cc17-9f45-4088-b452-c5c5b5eab222",
    "name": "ATM",
    "address": {
      "addressLine1": "Verploegh Chasseplein 1",
      "addressLine3": "Vlaardingen",
      "postalCode": "3134 BZ",
      "country": "The Netherlands"
    },
    "latitude": 51.909218,
    "longitude": 4.35143,
    "placeType": "atm"
  },
  {
    "id": "8ab4e17a-bb07-43f7-b57c-49d3f03799d3",
    "name": "ATM",
    "address": {
      "addressLine1": "Smitsweg 20",
      "addressLine3": "Soest",
      "postalCode": "3765 CT",
      "country": "The Netherlands"
    },
    "latitude": 52.171997,
    "longitude": 5.292361,
    "placeType": "atm"
  },
  {
    "id": "2209f995-1995-43bf-a7e8-572d9e814645",
    "name": "ATM",
    "address": {
      "addressLine1": "Stationsplein 11B",
      "addressLine3": "Haarlem",
      "postalCode": "2011 LR",
      "country": "The Netherlands"
    },
    "latitude": 52.3875973,
    "longitude": 4.6369685,
    "placeType": "atm"
  },
  {
    "id": "2c5cd84d-320a-47c0-8196-bda2cd39d5e6",
    "name": "ATM",
    "address": {
      "addressLine1": "Dreef 1A",
      "addressLine3": "Biddinghuizen",
      "postalCode": "8256 AW",
      "country": "The Netherlands"
    },
    "latitude": 52.455126,
    "longitude": 5.69332,
    "placeType": "atm"
  },
  {
    "id": "27102056-7374-4bc1-924e-70522c837cf7",
    "name": "ATM",
    "address": {
      "addressLine1": "Beertsterweg 1D",
      "addressLine3": "Winschoten",
      "postalCode": "9672 BE",
      "country": "The Netherlands"
    },
    "latitude": 53.144082,
    "longitude": 7.046022,
    "placeType": "atm"
  },
  {
    "id": "c267e684-e3c5-4f08-a150-2e43f08c9293",
    "name": "ATM",
    "address": {
      "addressLine1": "Hullenbergweg 2",
      "addressLine3": "Amsterdam-Zuidoost",
      "postalCode": "1101 BL",
      "country": "The Netherlands"
    },
    "latitude": 52.30309,
    "longitude": 4.949187,
    "placeType": "atm"
  },
  {
    "id": "cb991221-2394-4907-8b61-30b157c6852b",
    "name": "ATM",
    "address": {
      "addressLine1": "Dorpsstraat 36",
      "addressLine3": "Bennekom",
      "postalCode": "6721 JL",
      "country": "The Netherlands"
    },
    "latitude": 51.998392,
    "longitude": 5.67547,
    "placeType": "atm"
  },
  {
    "id": "3b19c4c7-6b32-4dcf-9364-c4b35e38560f",
    "name": "ATM",
    "address": {
      "addressLine1": "Keulsepoort 10",
      "addressLine3": "Venlo",
      "postalCode": "5911 BZ",
      "country": "The Netherlands"
    },
    "latitude": 51.367329,
    "longitude": 6.170791,
    "placeType": "atm"
  },
  {
    "id": "fc0ebc3f-ae1b-4633-a70f-306294cccf18",
    "name": "ATM",
    "address": {
      "addressLine1": "Stationsplein 2",
      "addressLine3": "Groningen",
      "postalCode": "9726 AE",
      "country": "The Netherlands"
    },
    "latitude": 53.211008,
    "longitude": 6.564657,
    "placeType": "atm"
  },
  {
    "id": "195f34e2-f6cc-4a53-a844-2ad8eac3b0bc",
    "name": "ATM",
    "address": {
      "addressLine1": "Middenbaan-Noord 35",
      "addressLine3": "Hoogvliet Rotterdam",
      "postalCode": "3191 EM",
      "country": "The Netherlands"
    },
    "latitude": 51.866713,
    "longitude": 4.35351,
    "placeType": "atm"
  },
  {
    "id": "614bac53-db97-49c7-b632-50fb821de3a3",
    "name": "ATM",
    "address": {
      "addressLine1": "De Eglantier 234",
      "addressLine3": "Apeldoorn",
      "postalCode": "7329 DH",
      "country": "The Netherlands"
    },
    "latitude": 52.195867,
    "longitude": 6.00606,
    "placeType": "atm"
  },
  {
    "id": "476d0e4c-9053-4370-8476-7c8ff441a45c",
    "name": "ATM",
    "address": {
      "addressLine1": "Doorsteek 9",
      "addressLine3": "Klundert",
      "postalCode": "4791 HR",
      "country": "The Netherlands"
    },
    "latitude": 51.663,
    "longitude": 4.533137,
    "placeType": "atm"
  },
  {
    "id": "a3bf1eb7-bc08-4dd9-8682-8f4ee3443625",
    "name": "ATM",
    "address": {
      "addressLine1": "Raadhuislaan 11",
      "addressLine3": "Maarn",
      "postalCode": "3951 CH",
      "country": "The Netherlands"
    },
    "latitude": 52.065064,
    "longitude": 5.372135,
    "placeType": "atm"
  },
  {
    "id": "581e4348-110d-495d-a571-e3e669d5dbbd",
    "name": "ATM",
    "address": {
      "addressLine1": "Winkelhof 29",
      "addressLine3": "Leiderdorp",
      "postalCode": "2353 TS",
      "country": "The Netherlands"
    },
    "latitude": 52.163049,
    "longitude": 4.532766,
    "placeType": "atm"
  },
  {
    "id": "f74d473a-8402-41db-9ff4-701b7812251d",
    "name": "ATM",
    "address": {
      "addressLine1": "Conradi-Veenlandstraat 4",
      "addressLine3": "Damwoude",
      "postalCode": "9104 BN",
      "country": "The Netherlands"
    },
    "latitude": 53.2939498,
    "longitude": 5.9961575,
    "placeType": "atm"
  },
  {
    "id": "54701fe1-a238-40f4-a380-aac09a7acf2f",
    "name": "ATM",
    "address": {
      "addressLine1": "Gibraltar 29",
      "addressLine3": "Zaandam",
      "postalCode": "1503 BM",
      "country": "The Netherlands"
    },
    "latitude": 52.445673,
    "longitude": 4.845865,
    "placeType": "atm"
  },
  {
    "id": "2199c7aa-a37c-4802-a398-1d4235992daa",
    "name": "ATM",
    "address": {
      "addressLine1": "Dorpsstraat 62",
      "addressLine3": "Rosmalen",
      "postalCode": "5241 ED",
      "country": "The Netherlands"
    },
    "latitude": 51.714725,
    "longitude": 5.363007,
    "placeType": "atm"
  },
  {
    "id": "d847b7f9-f5f9-4355-b930-56ffdb3ad5a0",
    "name": "ATM",
    "address": {
      "addressLine1": "Laan van Wateringse Veld 494",
      "addressLine3": "Den Haag",
      "postalCode": "2548 CL",
      "country": "The Netherlands"
    },
    "latitude": 52.030914,
    "longitude": 4.287743,
    "placeType": "atm"
  },
  {
    "id": "089b97b7-171e-48e6-8cf8-2c54611318ef",
    "name": "ATM",
    "address": {
      "addressLine1": "Snijdersstraat 8",
      "addressLine3": "Lelystad",
      "postalCode": "8224 AA",
      "country": "The Netherlands"
    },
    "latitude": 52.519234,
    "longitude": 5.483619,
    "placeType": "atm"
  },
  {
    "id": "2b89e90d-cf59-434b-ba5d-680a2acdc057",
    "name": "ATM",
    "address": {
      "addressLine1": "Dreef 2",
      "addressLine3": "Bruinisse",
      "postalCode": "4311 AK",
      "country": "The Netherlands"
    },
    "latitude": 51.660303,
    "longitude": 4.093208,
    "placeType": "atm"
  },
  {
    "id": "58b5db79-cc14-4514-9eaf-ed19349cbf4b",
    "name": "ATM",
    "address": {
      "addressLine1": "Harriet Freezerstraat 96",
      "addressLine3": "Amsterdam-Zuidoost",
      "postalCode": "1103 JP",
      "country": "The Netherlands"
    },
    "latitude": 52.321685,
    "longitude": 4.968426,
    "placeType": "atm"
  },
  {
    "id": "1b23923b-cc26-45d2-b43c-de9463f5b0a9",
    "name": "ATM",
    "address": {
      "addressLine1": "Kennedylaan 90",
      "addressLine3": "Brunssum",
      "postalCode": "6441 JG",
      "country": "The Netherlands"
    },
    "latitude": 50.94946,
    "longitude": 5.959689,
    "placeType": "atm"
  },
  {
    "id": "4c30026c-053c-4306-a2bb-c445eb5155fd",
    "name": "ATM",
    "address": {
      "addressLine1": "De Gors 27",
      "addressLine3": "Almelo",
      "postalCode": "7609 DZ",
      "country": "The Netherlands"
    },
    "latitude": 52.3361967,
    "longitude": 6.6303632,
    "placeType": "atm"
  },
  {
    "id": "e0cab4d0-6eb2-465e-9d32-11cbd7a47f5a",
    "name": "ATM",
    "address": {
      "addressLine1": "Hoofdstraat 99",
      "addressLine3": "Noordwijk",
      "postalCode": "2202 EW",
      "country": "The Netherlands"
    },
    "latitude": 52.243392,
    "longitude": 4.431252,
    "placeType": "atm"
  },
  {
    "id": "d12d07e5-74fd-4e8b-8aa6-797d88ef186c",
    "name": "ATM",
    "address": {
      "addressLine1": "Groeët Genhei 24",
      "addressLine3": "Heerlen",
      "postalCode": "6413 GN",
      "country": "The Netherlands"
    },
    "latitude": 50.917146,
    "longitude": 5.956317,
    "placeType": "atm"
  },
  {
    "id": "830ee31a-dbd5-42f1-b3c9-f23e708d4d09",
    "name": "ATM",
    "address": {
      "addressLine1": "Stadsbrink 375",
      "addressLine3": "Wageningen",
      "postalCode": "6707 AA",
      "country": "The Netherlands"
    },
    "latitude": 51.969949,
    "longitude": 5.668171,
    "placeType": "atm"
  },
  {
    "id": "b8e30de0-d646-40ad-afce-ae85ac3f862b",
    "name": "ATM",
    "address": {
      "addressLine1": "Choorstraat 35",
      "addressLine3": "Delft",
      "postalCode": "2611 JE",
      "country": "The Netherlands"
    },
    "latitude": 52.013104,
    "longitude": 4.358301,
    "placeType": "atm"
  },
  {
    "id": "6337946d-2fc8-4cfe-9346-26b1f4ad78bc",
    "name": "ATM",
    "address": {
      "addressLine1": "Stationsplein 22",
      "addressLine3": "Zwolle",
      "postalCode": "8011 CW",
      "country": "The Netherlands"
    },
    "latitude": 52.506611,
    "longitude": 6.089897,
    "placeType": "atm"
  },
  {
    "id": "e628e247-08db-4d58-bde6-6c0e4d5be026",
    "name": "ATM",
    "address": {
      "addressLine1": "Houtzagersstraat 6",
      "addressLine3": "Vaassen",
      "postalCode": "8171 CW",
      "country": "The Netherlands"
    },
    "latitude": 52.2876,
    "longitude": 5.970482,
    "placeType": "atm"
  },
  {
    "id": "2a2e0011-809c-48ea-bdeb-b088e7b07264",
    "name": "ATM",
    "address": {
      "addressLine1": "Overwinningsplein 73",
      "addressLine3": "Groningen",
      "postalCode": "9728 GR",
      "country": "The Netherlands"
    },
    "latitude": 53.19859,
    "longitude": 6.559786,
    "placeType": "atm"
  },
  {
    "id": "4819f4a1-a470-4a84-9a7c-5a9bcb620eeb",
    "name": "ATM",
    "address": {
      "addressLine1": "Dorpsstraat 2",
      "addressLine3": "Warmond",
      "postalCode": "2361 BB",
      "country": "The Netherlands"
    },
    "latitude": 52.195528,
    "longitude": 4.502244,
    "placeType": "atm"
  },
  {
    "id": "a53b6bbe-d196-4941-85c9-a1b91747a75c",
    "name": "ATM",
    "address": {
      "addressLine1": "Groningensingel 957",
      "addressLine3": "Arnhem",
      "postalCode": "6835 GL",
      "country": "The Netherlands"
    },
    "latitude": 51.95298,
    "longitude": 5.906041,
    "placeType": "atm"
  },
  {
    "id": "89a4ea78-a512-4b0b-9d46-967781d2da60",
    "name": "ATM",
    "address": {
      "addressLine1": "De Boelelaan 1117",
      "addressLine3": "Amsterdam",
      "postalCode": "1081 HV",
      "country": "The Netherlands"
    },
    "latitude": 52.334224,
    "longitude": 4.860047,
    "placeType": "atm"
  },
  {
    "id": "8495e3c3-6670-4c3f-8d22-6268bd842a19",
    "name": "ATM",
    "address": {
      "addressLine1": "Nieuwe Ebbingestraat 33",
      "addressLine3": "Groningen",
      "postalCode": "9712 ND",
      "country": "The Netherlands"
    },
    "latitude": 53.223353,
    "longitude": 6.564004,
    "placeType": "atm"
  },
  {
    "id": "fc0d5976-9778-48f7-a706-28f09d564ed3",
    "name": "ATM",
    "address": {
      "addressLine1": "De Stede 10",
      "addressLine3": "Den Haag",
      "postalCode": "2543 BG",
      "country": "The Netherlands"
    },
    "latitude": 52.042961,
    "longitude": 4.261089,
    "placeType": "atm"
  },
  {
    "id": "6e9cf99e-3610-433b-8c68-005d5e319eb0",
    "name": "ATM",
    "address": {
      "addressLine1": "Sarphatistraat 670",
      "addressLine3": "Amsterdam",
      "postalCode": "1018 AV",
      "country": "The Netherlands"
    },
    "latitude": 52.366447,
    "longitude": 4.924333,
    "placeType": "atm"
  },
  {
    "id": "5ac1e6b8-57f9-424e-a2a5-d0176f885ae3",
    "name": "ATM",
    "address": {
      "addressLine1": "Van Dedemstraat 19",
      "addressLine3": "Hoorn",
      "postalCode": "1624 NN",
      "country": "The Netherlands"
    },
    "latitude": 52.64615,
    "longitude": 5.051908,
    "placeType": "atm"
  },
  {
    "id": "3e6948f3-4a5a-4738-a3b3-df1006702cd8",
    "name": "ATM",
    "address": {
      "addressLine1": "Peppelweg 151",
      "addressLine3": "Rotterdam",
      "postalCode": "3053 GL",
      "country": "The Netherlands"
    },
    "latitude": 51.960818,
    "longitude": 4.46695,
    "placeType": "atm"
  },
  {
    "id": "3993d43c-f85c-4b73-acb2-f883dc5430be",
    "name": "ATM",
    "address": {
      "addressLine1": "Sterrenhof 18",
      "addressLine3": "Spijkenisse",
      "postalCode": "3204 AT",
      "country": "The Netherlands"
    },
    "latitude": 51.842102,
    "longitude": 4.323696,
    "placeType": "atm"
  },
  {
    "id": "a9ace396-d25b-414a-98cf-063ca90e1dc7",
    "name": "ATM",
    "address": {
      "addressLine1": "Bloemenoordplein 50",
      "addressLine3": "Waalwijk",
      "postalCode": "5143 TC",
      "country": "The Netherlands"
    },
    "latitude": 51.6823433,
    "longitude": 5.0782567,
    "placeType": "atm"
  },
  {
    "id": "f34c4ee3-7403-43d4-a33f-286bbcfb34bc",
    "name": "ATM",
    "address": {
      "addressLine1": "De Weide 28",
      "addressLine3": "Hoogeveen",
      "postalCode": "7908 AB",
      "country": "The Netherlands"
    },
    "latitude": 52.71866,
    "longitude": 6.451842,
    "placeType": "atm"
  },
  {
    "id": "a22ee528-7305-4db2-97cc-0fa9754ebd63",
    "name": "ATM",
    "address": {
      "addressLine1": "Grote Marktstraat 55",
      "addressLine3": "Den Haag",
      "postalCode": "2511 BH",
      "country": "The Netherlands"
    },
    "latitude": 52.076773,
    "longitude": 4.31326,
    "placeType": "atm"
  },
  {
    "id": "89364434-0c5b-4e71-ab59-1adf6ca60224",
    "name": "ATM",
    "address": {
      "addressLine1": "Jan Fabriciusstraat 4",
      "addressLine3": "Assen",
      "postalCode": "9401 BW",
      "country": "The Netherlands"
    },
    "latitude": 52.997438,
    "longitude": 6.567874,
    "placeType": "atm"
  },
  {
    "id": "d7cdf20c-2b6c-417d-b196-252b8e126ea4",
    "name": "ATM",
    "address": {
      "addressLine1": "Picassopassage 38",
      "addressLine3": "Capelle aan den IJssel",
      "postalCode": "2907 ME",
      "country": "The Netherlands"
    },
    "latitude": 51.953505,
    "longitude": 4.584355,
    "placeType": "atm"
  },
  {
    "id": "91e1e277-e989-4d62-ab5a-d51e4dfaf9d8",
    "name": "ATM",
    "address": {
      "addressLine1": "Hof van Portland 12",
      "addressLine3": "Rhoon",
      "postalCode": "3162 WJ",
      "country": "The Netherlands"
    },
    "latitude": 51.857631,
    "longitude": 4.471583,
    "placeType": "atm"
  },
  {
    "id": "7b4337df-0f76-42a7-9553-310961346e55",
    "name": "ATM",
    "address": {
      "addressLine1": "Terreplein 4",
      "addressLine3": "Tholen",
      "postalCode": "4691 AA",
      "country": "The Netherlands"
    },
    "latitude": 51.5371644,
    "longitude": 4.2269025,
    "placeType": "atm"
  },
  {
    "id": "3048a4c0-6893-4423-9b33-bb26b42b6ee8",
    "name": "ATM",
    "address": {
      "addressLine1": "Laan van Tolkien 220",
      "addressLine3": "Geldrop",
      "postalCode": "5663 SC",
      "country": "The Netherlands"
    },
    "latitude": 51.413479,
    "longitude": 5.542994,
    "placeType": "atm"
  },
  {
    "id": "69fd23aa-e4ce-47ba-957d-51b7a9fbcf79",
    "name": "ATM",
    "address": {
      "addressLine1": "Marktplein 27",
      "addressLine3": "Borne",
      "postalCode": "7622 CL",
      "country": "The Netherlands"
    },
    "latitude": 52.300017,
    "longitude": 6.756266,
    "placeType": "atm"
  },
  {
    "id": "05f4bb3e-3cc3-4ece-8369-21de462738ff",
    "name": "ATM",
    "address": {
      "addressLine1": "Clavecymbelstraat 54",
      "addressLine3": "Maastricht",
      "postalCode": "6217 CV",
      "country": "The Netherlands"
    },
    "latitude": 50.860425,
    "longitude": 5.669399,
    "placeType": "atm"
  },
  {
    "id": "5debc639-dbe4-474b-b364-4ed35f7926b3",
    "name": "ATM",
    "address": {
      "addressLine1": "Luifelbaan 11A",
      "addressLine3": "Wassenaar",
      "postalCode": "2242 KT",
      "country": "The Netherlands"
    },
    "latitude": 52.1456637,
    "longitude": 4.3920315,
    "placeType": "atm"
  },
  {
    "id": "a40ad402-aad5-4e89-b6be-dd91a49edc48",
    "name": "ATM",
    "address": {
      "addressLine1": "Menton Passage 12",
      "addressLine3": "Haarlem",
      "postalCode": "2037 AB",
      "country": "The Netherlands"
    },
    "latitude": 52.359679,
    "longitude": 4.655094,
    "placeType": "atm"
  },
  {
    "id": "52489211-858e-44e3-b09f-306a079574f8",
    "name": "ATM",
    "address": {
      "addressLine1": "De Lind 1",
      "addressLine3": "Oisterwijk",
      "postalCode": "5061 HS",
      "country": "The Netherlands"
    },
    "latitude": 51.580827,
    "longitude": 5.194586,
    "placeType": "atm"
  },
  {
    "id": "b7475f45-a725-4598-b1dc-a453e8260586",
    "name": "ATM",
    "address": {
      "addressLine1": "Waalderstraat 48",
      "addressLine3": "Den Burg",
      "postalCode": "1791 EC",
      "country": "The Netherlands"
    },
    "latitude": 53.056402,
    "longitude": 4.797803,
    "placeType": "atm"
  },
  {
    "id": "aadf5a39-54b6-41fc-bc89-64f536b4f61e",
    "name": "ATM",
    "address": {
      "addressLine1": "Rozenoord 2",
      "addressLine3": "Berkel en Rodenrijs",
      "postalCode": "2651 XN",
      "country": "The Netherlands"
    },
    "latitude": 51.981438,
    "longitude": 4.460909,
    "placeType": "atm"
  },
  {
    "id": "9ee45683-8587-4480-8e86-e9de9a0e1e16",
    "name": "ATM",
    "address": {
      "addressLine1": "Van Baerlestraat 23",
      "addressLine3": "Amsterdam",
      "postalCode": "1071 AN",
      "country": "The Netherlands"
    },
    "latitude": 52.359183,
    "longitude": 4.878118,
    "placeType": "atm"
  },
  {
    "id": "bc769a41-e5e7-410a-9778-d4fda740e1d0",
    "name": "ATM",
    "address": {
      "addressLine1": "Bunschoterplein 1",
      "addressLine3": "Ede",
      "postalCode": "6711 CD",
      "country": "The Netherlands"
    },
    "latitude": 52.047668,
    "longitude": 5.6692903,
    "placeType": "atm"
  },
  {
    "id": "052b53a0-8aa4-413d-adc2-eb467d0fb1c1",
    "name": "ATM",
    "address": {
      "addressLine1": "Runneboom 2",
      "addressLine3": "Warnsveld",
      "postalCode": "7232 CX",
      "country": "The Netherlands"
    },
    "latitude": 52.135292,
    "longitude": 6.229638,
    "placeType": "atm"
  },
  {
    "id": "1712c826-2a9a-4034-a8cc-c4b8974e6804",
    "name": "ATM",
    "address": {
      "addressLine1": "Haagbeukweg 50",
      "addressLine3": "Almere",
      "postalCode": "1326 CP",
      "country": "The Netherlands"
    },
    "latitude": 52.375551,
    "longitude": 5.243268,
    "placeType": "atm"
  },
  {
    "id": "4a8f9ad0-0eb4-4d88-b3d7-a02f3c1fbd34",
    "name": "ATM",
    "address": {
      "addressLine1": "Kamperfoelie 1",
      "addressLine3": "Tiel",
      "postalCode": "4007 TK",
      "country": "The Netherlands"
    },
    "latitude": 51.87094,
    "longitude": 5.400273,
    "placeType": "atm"
  },
  {
    "id": "859b3c2a-34d5-4cd3-b340-5465bc50d5e5",
    "name": "ATM",
    "address": {
      "addressLine1": "Molenwijk 38",
      "addressLine3": "Amsterdam",
      "postalCode": "1035 EG",
      "country": "The Netherlands"
    },
    "latitude": 52.417277,
    "longitude": 4.89302,
    "placeType": "atm"
  },
  {
    "id": "65e0b009-926c-4621-a98e-df89a3c0921a",
    "name": "ATM",
    "address": {
      "addressLine1": "Dorpsstraat 17",
      "addressLine3": "Holten",
      "postalCode": "7451 BR",
      "country": "The Netherlands"
    },
    "latitude": 52.281909,
    "longitude": 6.422417,
    "placeType": "atm"
  },
  {
    "id": "ab3fb99f-e98c-420c-85f8-e449d506669e",
    "name": "ATM",
    "address": {
      "addressLine1": "Gasthuisstraat 124",
      "addressLine3": "Kaatsheuvel",
      "postalCode": "5171 GJ",
      "country": "The Netherlands"
    },
    "latitude": 51.656913,
    "longitude": 5.040474,
    "placeType": "atm"
  },
  {
    "id": "b305785e-67f9-4f02-9c73-73bfd5dea34d",
    "name": "ATM",
    "address": {
      "addressLine1": "Moerwijk 2",
      "addressLine3": "Breda",
      "postalCode": "4826 HN",
      "country": "The Netherlands"
    },
    "latitude": 51.606826,
    "longitude": 4.789606,
    "placeType": "atm"
  },
  {
    "id": "240f34d5-9f18-48f7-8d72-1d532b4de63d",
    "name": "ATM",
    "address": {
      "addressLine1": "Kolveniershof 44",
      "addressLine3": "Goes",
      "postalCode": "4461 DB",
      "country": "The Netherlands"
    },
    "latitude": 51.503084,
    "longitude": 3.887307,
    "placeType": "atm"
  },
  {
    "id": "0199ffbd-9ca3-40ca-a897-5fb134ccd011",
    "name": "ATM",
    "address": {
      "addressLine1": "Bijlmerdreef 24",
      "addressLine3": "Amsterdam-Zuidoost",
      "postalCode": "1102 CT",
      "country": "The Netherlands"
    },
    "latitude": 52.313842,
    "longitude": 4.947145,
    "placeType": "atm"
  },
  {
    "id": "ab031d2b-4923-453b-accd-6be7a2ccf97e",
    "name": "ATM",
    "address": {
      "addressLine1": "Maltaplein 52",
      "addressLine3": "Rotterdam",
      "postalCode": "3059 XW",
      "country": "The Netherlands"
    },
    "latitude": 51.980503,
    "longitude": 4.583363,
    "placeType": "atm"
  },
  {
    "id": "b559c549-0b39-43a4-9eb6-ccedb554ac40",
    "name": "ATM",
    "address": {
      "addressLine1": "Hogenkampspassage 10",
      "addressLine3": "Zwolle",
      "postalCode": "8022 EL",
      "country": "The Netherlands"
    },
    "latitude": 52.521298,
    "longitude": 6.106413,
    "placeType": "atm"
  },
  {
    "id": "460ab48a-269f-41ac-85aa-a1d1c1e51543",
    "name": "ATM",
    "address": {
      "addressLine1": "Laurastraat 51",
      "addressLine3": "Eygelshoven",
      "postalCode": "6471 JH",
      "country": "The Netherlands"
    },
    "latitude": 50.893226,
    "longitude": 6.056798,
    "placeType": "atm"
  },
  {
    "id": "23db083f-f3df-49a6-920c-8393f32d06b3",
    "name": "ATM",
    "address": {
      "addressLine1": "Mesdaglaan 199",
      "addressLine3": "Maassluis",
      "postalCode": "3141 HE",
      "country": "The Netherlands"
    },
    "latitude": 51.918815,
    "longitude": 4.260837,
    "placeType": "atm"
  },
  {
    "id": "c0a14765-66cd-430c-a983-f5b88204bd8b",
    "name": "ATM",
    "address": {
      "addressLine1": "Daalseweg 200",
      "addressLine3": "Nijmegen",
      "postalCode": "6521 GR",
      "country": "The Netherlands"
    },
    "latitude": 51.83802,
    "longitude": 5.874711,
    "placeType": "atm"
  },
  {
    "id": "f5217ab2-6143-444a-b970-6f72030ad117",
    "name": "ATM",
    "address": {
      "addressLine1": "Slotplein 96",
      "addressLine3": "Capelle aan den IJssel",
      "postalCode": "2902 HR",
      "country": "The Netherlands"
    },
    "latitude": 51.923393,
    "longitude": 4.583642,
    "placeType": "atm"
  },
  {
    "id": "7759a64c-ef98-4541-9530-b85aedf3bdc1",
    "name": "ATM",
    "address": {
      "addressLine1": "Roze Flamingo 98",
      "addressLine3": "Heerhugowaard",
      "postalCode": "1704 WV",
      "country": "The Netherlands"
    },
    "latitude": 52.652879,
    "longitude": 4.81323,
    "placeType": "atm"
  },
  {
    "id": "4c5f8892-965c-4c3b-8154-ba41c4d808db",
    "name": "ATM",
    "address": {
      "addressLine1": "Obergon 2",
      "addressLine3": "Winsum",
      "postalCode": "9951 HL",
      "country": "The Netherlands"
    },
    "latitude": 53.334767,
    "longitude": 6.515408,
    "placeType": "atm"
  },
  {
    "id": "a29df9f0-2b5b-4390-b248-5ae5ebbbecd1",
    "name": "ATM",
    "address": {
      "addressLine1": "Meerzand 6",
      "addressLine3": "Eindhoven",
      "postalCode": "5658 LJ",
      "country": "The Netherlands"
    },
    "latitude": 51.442827,
    "longitude": 5.409139,
    "placeType": "atm"
  },
  {
    "id": "ceecf912-e486-406b-bf38-b5e85632f7ca",
    "name": "ATM",
    "address": {
      "addressLine1": "Washingtonstraat 50",
      "addressLine3": "Almere",
      "postalCode": "1334 LT",
      "country": "The Netherlands"
    },
    "latitude": 52.39384,
    "longitude": 5.273534,
    "placeType": "atm"
  },
  {
    "id": "4a4d2650-727a-4ec1-8f09-127f0e1a7346",
    "name": "ATM",
    "address": {
      "addressLine1": "Bureweg 2",
      "addressLine3": "Nes Ameland",
      "postalCode": "9163 KE",
      "country": "The Netherlands"
    },
    "latitude": 53.441231,
    "longitude": 5.773661,
    "placeType": "atm"
  },
  {
    "id": "29b51d70-5cf7-4af7-9730-e849eaab52bb",
    "name": "ATM",
    "address": {
      "addressLine1": "Sint Janstraat 91",
      "addressLine3": "Hoeven",
      "postalCode": "4741 AN",
      "country": "The Netherlands"
    },
    "latitude": 51.58212,
    "longitude": 4.583475,
    "placeType": "atm"
  },
  {
    "id": "2eede784-3c75-40f5-8503-60aea4c4518f",
    "name": "ATM",
    "address": {
      "addressLine1": "Dorpsstraat 4",
      "addressLine3": "Elst",
      "postalCode": "6661 EK",
      "country": "The Netherlands"
    },
    "latitude": 51.919225,
    "longitude": 5.849798,
    "placeType": "atm"
  },
  {
    "id": "11e54c79-3591-4b5b-90a4-c691b191d923",
    "name": "ATM",
    "address": {
      "addressLine1": "Bussumerstraat 60",
      "addressLine3": "Hilversum",
      "postalCode": "1211 BL",
      "country": "The Netherlands"
    },
    "latitude": 52.225433,
    "longitude": 5.173362,
    "placeType": "atm"
  },
  {
    "id": "6ccaa8b8-6b1f-4b1e-ac85-69ab2e465708",
    "name": "ATM",
    "address": {
      "addressLine1": "Wilhelmina Druckerstraat 7",
      "addressLine3": "Tiel",
      "postalCode": "4003 ZN",
      "country": "The Netherlands"
    },
    "latitude": 51.892442,
    "longitude": 5.408023,
    "placeType": "atm"
  },
  {
    "id": "9fe6295c-e314-4436-a18f-f29328ed1efe",
    "name": "ATM",
    "address": {
      "addressLine1": "Oosterstraat 22-26",
      "addressLine3": "Steenwijk",
      "postalCode": "8331 HE",
      "country": "The Netherlands"
    },
    "latitude": 52.78743,
    "longitude": 6.117792,
    "placeType": "atm"
  },
  {
    "id": "72c572f0-893b-43bc-b68c-9ba352189240",
    "name": "ATM",
    "address": {
      "addressLine1": "Oost-Voorstraat 41",
      "addressLine3": "Oud-Beijerland",
      "postalCode": "3262 JG",
      "country": "The Netherlands"
    },
    "latitude": 51.824225,
    "longitude": 4.412327,
    "placeType": "atm"
  },
  {
    "id": "3db5d967-c6e3-416a-ab51-1f303fc5b87a",
    "name": "ATM",
    "address": {
      "addressLine1": "Vuurplaat 426",
      "addressLine3": "Rotterdam",
      "postalCode": "3071 AR",
      "country": "The Netherlands"
    },
    "latitude": 51.904547,
    "longitude": 4.504072,
    "placeType": "atm"
  },
  {
    "id": "116f57b7-de21-4732-a7d2-a4b2253b46f2",
    "name": "ATM",
    "address": {
      "addressLine1": "Hoogoordplein 3",
      "addressLine3": "Amsterdam-Zuidoost",
      "postalCode": "1101 DT",
      "country": "The Netherlands"
    },
    "latitude": 52.311566,
    "longitude": 4.94422,
    "placeType": "atm"
  },
  {
    "id": "facc5df7-5e78-49ae-94ed-b97a28c79aad",
    "name": "ATM",
    "address": {
      "addressLine1": "Wijkerbaan 2",
      "addressLine3": "Beverwijk",
      "postalCode": "1945 SE",
      "country": "The Netherlands"
    },
    "latitude": 52.496776,
    "longitude": 4.664167,
    "placeType": "atm"
  },
  {
    "id": "b4e44dd4-e71e-430b-9282-e166cad0e41a",
    "name": "ATM",
    "address": {
      "addressLine1": "P.C. Hooftplein 73A",
      "addressLine3": "Harderwijk",
      "postalCode": "3842 HE",
      "country": "The Netherlands"
    },
    "latitude": 52.343361,
    "longitude": 5.636489,
    "placeType": "atm"
  },
  {
    "id": "8b6a7972-3c4b-4380-a7c9-cf16587bf0e2",
    "name": "ATM",
    "address": {
      "addressLine1": "Schoolstraat 12",
      "addressLine3": "Zwartsluis",
      "postalCode": "8064 DK",
      "country": "The Netherlands"
    },
    "latitude": 52.6406,
    "longitude": 6.071167,
    "placeType": "atm"
  },
  {
    "id": "d12f6158-ccbc-4f13-b7c0-f9a329856732",
    "name": "ATM",
    "address": {
      "addressLine1": "Vaillantlaan 366",
      "addressLine3": "Den Haag",
      "postalCode": "2526 HV",
      "country": "The Netherlands"
    },
    "latitude": 52.065675,
    "longitude": 4.305868,
    "placeType": "atm"
  },
  {
    "id": "4ab3b90c-fda8-4062-a796-035f401c293e",
    "name": "ATM",
    "address": {
      "addressLine1": "Plein '40-'45 9B",
      "addressLine3": "Amsterdam",
      "postalCode": "1063 KR",
      "country": "The Netherlands"
    },
    "latitude": 52.380153,
    "longitude": 4.822266,
    "placeType": "atm"
  },
  {
    "id": "80d8b3b6-7959-4ad5-be63-385c9d0a2557",
    "name": "ATM",
    "address": {
      "addressLine1": "Dorpsstraat 5",
      "addressLine3": "Poortugaal",
      "postalCode": "3171 ED",
      "country": "The Netherlands"
    },
    "latitude": 51.856872,
    "longitude": 4.390323,
    "placeType": "atm"
  },
  {
    "id": "84e2e55e-dbd8-48b8-ab21-ac4cd03e2dc1",
    "name": "ATM",
    "address": {
      "addressLine1": "Prinsen Hoven 1",
      "addressLine3": "Steenwijk",
      "postalCode": "8331 JV",
      "country": "The Netherlands"
    },
    "latitude": 52.78745,
    "longitude": 6.114398,
    "placeType": "atm"
  },
  {
    "id": "42c9617b-2607-4f50-96fe-a9be035a6c0d",
    "name": "ATM",
    "address": {
      "addressLine1": "Dorpsstraat 84",
      "addressLine3": "Bleiswijk",
      "postalCode": "2665 BK",
      "country": "The Netherlands"
    },
    "latitude": 52.011752,
    "longitude": 4.529964,
    "placeType": "atm"
  },
  {
    "id": "0ed34c22-5170-454a-b4f3-64b874143e82",
    "name": "ATM",
    "address": {
      "addressLine1": "Kajuit 269",
      "addressLine3": "Groningen",
      "postalCode": "9733 CT",
      "country": "The Netherlands"
    },
    "latitude": 53.237739,
    "longitude": 6.624254,
    "placeType": "atm"
  },
  {
    "id": "493926b8-ad8b-4e43-981e-6ad423955b8a",
    "name": "ATM",
    "address": {
      "addressLine1": "Van Ostadelaan 40",
      "addressLine3": "Utrecht",
      "postalCode": "3583 AJ",
      "country": "The Netherlands"
    },
    "latitude": 52.082678,
    "longitude": 5.140704,
    "placeType": "atm"
  },
  {
    "id": "b603a1a6-52b0-4308-82fa-33338741065c",
    "name": "ATM",
    "address": {
      "addressLine1": "Hoofdstraat 23",
      "addressLine3": "Veghel",
      "postalCode": "5461 JC",
      "country": "The Netherlands"
    },
    "latitude": 51.615969,
    "longitude": 5.544003,
    "placeType": "atm"
  },
  {
    "id": "fbdd2204-7c5a-47ec-8fb9-8839db85a42d",
    "name": "ATM",
    "address": {
      "addressLine1": "Stationsplein 6",
      "addressLine3": "Nijmegen",
      "postalCode": "6512 AA",
      "country": "The Netherlands"
    },
    "latitude": 51.843186,
    "longitude": 5.853098,
    "placeType": "atm"
  },
  {
    "id": "5e051428-76d0-42eb-9569-4d0af13a20c6",
    "name": "ATM",
    "address": {
      "addressLine1": "Talmastraat 16",
      "addressLine3": "Hardinxveld-Giessendam",
      "postalCode": "3371 VG",
      "country": "The Netherlands"
    },
    "latitude": 51.825962,
    "longitude": 4.83309,
    "placeType": "atm"
  },
  {
    "id": "d1eade70-3080-47c0-be52-db1fcfdba278",
    "name": "ATM",
    "address": {
      "addressLine1": "Friesewal 1",
      "addressLine3": "Zwolle",
      "postalCode": "8011 XE",
      "country": "The Netherlands"
    },
    "latitude": 52.515598,
    "longitude": 6.093148,
    "placeType": "atm"
  },
  {
    "id": "a25dcbb3-d2d1-4dcb-aab3-b285d7243cdc",
    "name": "ATM",
    "address": {
      "addressLine1": "Watermolen 2",
      "addressLine3": "Rijssen",
      "postalCode": "7461 AZ",
      "country": "The Netherlands"
    },
    "latitude": 52.309577,
    "longitude": 6.523596,
    "placeType": "atm"
  },
  {
    "id": "79cb6ca6-113d-4b69-98e8-01aeca07d0d6",
    "name": "ATM",
    "address": {
      "addressLine1": "Insulindelaan 130",
      "addressLine3": "Eindhoven",
      "postalCode": "5613 BT",
      "country": "The Netherlands"
    },
    "latitude": 51.441304,
    "longitude": 5.503672,
    "placeType": "atm"
  },
  {
    "id": "925509c4-46fd-4760-bd46-dcb10e240010",
    "name": "ATM",
    "address": {
      "addressLine1": "Pastoor van Spaandonkstraat 48",
      "addressLine3": "Breda",
      "postalCode": "4813 BS",
      "country": "The Netherlands"
    },
    "latitude": 51.578257,
    "longitude": 4.739235,
    "placeType": "atm"
  },
  {
    "id": "8d49b7f3-67b8-4163-a0a7-890ef6781988",
    "name": "ATM",
    "address": {
      "addressLine1": "Kooilaan 49",
      "addressLine3": "Leiden",
      "postalCode": "2315 EB",
      "country": "The Netherlands"
    },
    "latitude": 52.167059,
    "longitude": 4.507193,
    "placeType": "atm"
  },
  {
    "id": "d13985a2-b4ee-4250-b2f2-7501b3b15018",
    "name": "ATM",
    "address": {
      "addressLine1": "Achterste Wei 9",
      "addressLine3": "Harderwijk",
      "postalCode": "3844 HR",
      "country": "The Netherlands"
    },
    "latitude": 52.336882,
    "longitude": 5.60819,
    "placeType": "atm"
  },
  {
    "id": "6ee8891f-7e42-43f8-a8b6-0d707b2d429b",
    "name": "ATM",
    "address": {
      "addressLine1": "Parijsplein 19",
      "addressLine3": "Den Haag",
      "postalCode": "2548 VL",
      "country": "The Netherlands"
    },
    "latitude": 52.019721,
    "longitude": 4.297285,
    "placeType": "atm"
  },
  {
    "id": "59565f28-9dd7-4ec3-bf82-e79616d77c58",
    "name": "ATM",
    "address": {
      "addressLine1": "Vogelenzang 95",
      "addressLine3": "Halsteren",
      "postalCode": "4661 JD",
      "country": "The Netherlands"
    },
    "latitude": 51.522302,
    "longitude": 4.27335,
    "placeType": "atm"
  },
  {
    "id": "9c05186d-1a1b-4d2e-a3be-4b49ea381cc8",
    "name": "ATM",
    "address": {
      "addressLine1": "Houtsmastraat 150",
      "addressLine3": "Doetinchem",
      "postalCode": "7002 KK",
      "country": "The Netherlands"
    },
    "latitude": 51.973452,
    "longitude": 6.315908,
    "placeType": "atm"
  },
  {
    "id": "fccb29af-f6f1-4440-ada7-52405f2018bf",
    "name": "ATM",
    "address": {
      "addressLine1": "Amsterdamsestraatweg 279",
      "addressLine3": "Utrecht",
      "postalCode": "3551 CE",
      "country": "The Netherlands"
    },
    "latitude": 52.101514,
    "longitude": 5.099058,
    "placeType": "atm"
  },
  {
    "id": "50eab916-1103-4f25-bd89-fc8e61612889",
    "name": "ATM",
    "address": {
      "addressLine1": "Breelaan 23",
      "addressLine3": "Bergen",
      "postalCode": "1861 GC",
      "country": "The Netherlands"
    },
    "latitude": 52.671101,
    "longitude": 4.700104,
    "placeType": "atm"
  },
  {
    "id": "f0303106-9e57-4a2e-a2f2-15da439804f8",
    "name": "ATM",
    "address": {
      "addressLine1": "Nyenburgh 99",
      "addressLine3": "Oudorp",
      "postalCode": "1829 GC",
      "country": "The Netherlands"
    },
    "latitude": 52.636035,
    "longitude": 4.775362,
    "placeType": "atm"
  },
  {
    "id": "ca217466-5e1a-42f9-b37d-b526728111df",
    "name": "ATM",
    "address": {
      "addressLine1": "Lange Poten 1",
      "addressLine3": "Den Haag",
      "postalCode": "2511 CL",
      "country": "The Netherlands"
    },
    "latitude": 52.078452,
    "longitude": 4.314066,
    "placeType": "atm"
  },
  {
    "id": "48b86a39-375f-4793-b965-2a904041afd9",
    "name": "ATM",
    "address": {
      "addressLine1": "Wythusterwei 12",
      "addressLine3": "Stiens",
      "postalCode": "9051 EJ",
      "country": "The Netherlands"
    },
    "latitude": 53.25689,
    "longitude": 5.765049,
    "placeType": "atm"
  },
  {
    "id": "53f8abe1-d4ee-477b-8a65-efd5a472fc23",
    "name": "ATM",
    "address": {
      "addressLine1": "Sint Antoniusplein 35",
      "addressLine3": "Sneek",
      "postalCode": "8601 HK",
      "country": "The Netherlands"
    },
    "latitude": 53.033612,
    "longitude": 5.655537,
    "placeType": "atm"
  },
  {
    "id": "3fe9de39-e389-4570-92f9-59d25ae1da95",
    "name": "ATM",
    "address": {
      "addressLine1": "Wilhelminaplein 6",
      "addressLine3": "Best",
      "postalCode": "5684 VK",
      "country": "The Netherlands"
    },
    "latitude": 51.496066,
    "longitude": 5.394495,
    "placeType": "atm"
  },
  {
    "id": "c02867e3-5093-44bd-b6de-0f9f7e448d5d",
    "name": "ATM",
    "address": {
      "addressLine1": "Schrans 121",
      "addressLine3": "Leeuwarden",
      "postalCode": "8932 ND",
      "country": "The Netherlands"
    },
    "latitude": 53.194397,
    "longitude": 5.799055,
    "placeType": "atm"
  },
  {
    "id": "6f5a47c5-c435-4be3-814d-ae45f26c075a",
    "name": "ATM",
    "address": {
      "addressLine1": "Scharnerweg 110",
      "addressLine3": "Maastricht",
      "postalCode": "6224 JJ",
      "country": "The Netherlands"
    },
    "latitude": 50.849208,
    "longitude": 5.712519,
    "placeType": "atm"
  },
  {
    "id": "74f11f3d-da9f-4f2d-8c32-44eeeb89aaa4",
    "name": "ATM",
    "address": {
      "addressLine1": "Markt 19",
      "addressLine3": "Uden",
      "postalCode": "5401 GN",
      "country": "The Netherlands"
    },
    "latitude": 51.656433,
    "longitude": 5.615052,
    "placeType": "atm"
  },
  {
    "id": "789ce353-a4ea-49d0-b684-e3764285d218",
    "name": "ATM",
    "address": {
      "addressLine1": "Choorstraat 5",
      "addressLine3": "Delft",
      "postalCode": "2611 JD",
      "country": "The Netherlands"
    },
    "latitude": 52.0127315,
    "longitude": 4.3571421,
    "placeType": "atm"
  },
  {
    "id": "862316bc-4e64-4814-897e-1ceea0a96b14",
    "name": "ATM",
    "address": {
      "addressLine1": "Haaksbergerstraat 55",
      "addressLine3": "Enschede",
      "postalCode": "7513 ER",
      "country": "The Netherlands"
    },
    "latitude": 52.216166,
    "longitude": 6.891365,
    "placeType": "atm"
  },
  {
    "id": "e9f7ab14-b630-4761-b1de-9ed104fabf5b",
    "name": "ATM",
    "address": {
      "addressLine1": "Middenbaan 97",
      "addressLine3": "Barendrecht",
      "postalCode": "2991 CS",
      "country": "The Netherlands"
    },
    "latitude": 51.855884,
    "longitude": 4.536979,
    "placeType": "atm"
  },
  {
    "id": "1d6d7c3a-3f1e-4b30-840b-66fcd696ab9c",
    "name": "ATM",
    "address": {
      "addressLine1": "De Poort 10",
      "addressLine3": "Swifterbant",
      "postalCode": "8255 AA",
      "country": "The Netherlands"
    },
    "latitude": 52.571694,
    "longitude": 5.643851,
    "placeType": "atm"
  },
  {
    "id": "071b3b23-4e3e-4674-a298-b48c0919902e",
    "name": "ATM",
    "address": {
      "addressLine1": "Dorpsstraat 36",
      "addressLine3": "Havelte",
      "postalCode": "7971 CS",
      "country": "The Netherlands"
    },
    "latitude": 52.770808,
    "longitude": 6.235256,
    "placeType": "atm"
  },
  {
    "id": "52c8897f-1b56-4d90-a1f7-8c7415a6d4f0",
    "name": "ATM",
    "address": {
      "addressLine1": "Marienburgstraat 12",
      "addressLine3": "Arnhem",
      "postalCode": "6811 CS",
      "country": "The Netherlands"
    },
    "latitude": 51.982008,
    "longitude": 5.907759,
    "placeType": "atm"
  },
  {
    "id": "0bb97c0b-65f5-463e-b702-dafd9c808da1",
    "name": "ATM",
    "address": {
      "addressLine1": "Hibbertsstraat 4",
      "addressLine3": "Haaksbergen",
      "postalCode": "7481 JD",
      "country": "The Netherlands"
    },
    "latitude": 52.155225,
    "longitude": 6.740696,
    "placeType": "atm"
  },
  {
    "id": "5992b34d-e222-4eed-b653-ffb5484061bb",
    "name": "ATM",
    "address": {
      "addressLine1": "Burgemeester D. Kooimanweg 16",
      "addressLine3": "Purmerend",
      "postalCode": "1442 BZ",
      "country": "The Netherlands"
    },
    "latitude": 52.509485,
    "longitude": 4.958959,
    "placeType": "atm"
  },
  {
    "id": "25e36a6e-14e9-478e-866b-d8d694d6637e",
    "name": "ATM",
    "address": {
      "addressLine1": "Meeuwenstraat 2",
      "addressLine3": "Den Helder",
      "postalCode": "1781 XA",
      "country": "The Netherlands"
    },
    "latitude": 52.953514,
    "longitude": 4.763061,
    "placeType": "atm"
  },
  {
    "id": "363a3967-1960-44b7-90b9-343c8d30e7dc",
    "name": "ATM",
    "address": {
      "addressLine1": "Vuldersbrink 75",
      "addressLine3": "Harderwijk",
      "postalCode": "3841 AS",
      "country": "The Netherlands"
    },
    "latitude": 52.350189,
    "longitude": 5.620395,
    "placeType": "atm"
  },
  {
    "id": "35d93cb6-8791-4087-94f8-5f90d2141fb8",
    "name": "ATM",
    "address": {
      "addressLine1": "Molenwerf 20",
      "addressLine3": "Koog aan de Zaan",
      "postalCode": "1541 WR",
      "country": "The Netherlands"
    },
    "latitude": 52.457912,
    "longitude": 4.799866,
    "placeType": "atm"
  },
  {
    "id": "7a0de487-c304-4d6e-9b09-246664d25a12",
    "name": "ATM",
    "address": {
      "addressLine1": "Stationshal 11",
      "addressLine3": "Utrecht",
      "postalCode": "3511 CE",
      "country": "The Netherlands"
    },
    "latitude": 52.089965,
    "longitude": 5.1110923,
    "placeType": "atm"
  },
  {
    "id": "b43a3bea-8b59-4c6b-aef7-7576e1a8a083",
    "name": "ATM",
    "address": {
      "addressLine1": "Annie Romeinplein 36",
      "addressLine3": "Amsterdam-Zuidoost",
      "postalCode": "1103 JL",
      "country": "The Netherlands"
    },
    "latitude": 52.322358,
    "longitude": 4.970458,
    "placeType": "atm"
  },
  {
    "id": "d559b5bd-7991-46fa-994e-c001fdcbe0d6",
    "name": "ATM",
    "address": {
      "addressLine1": "Heuneind 21",
      "addressLine3": "Berkel-Enschot",
      "postalCode": "5056 GE",
      "country": "The Netherlands"
    },
    "latitude": 51.584371,
    "longitude": 5.142563,
    "placeType": "atm"
  },
  {
    "id": "6c846343-40ac-40e1-a7e8-a668d05eda5d",
    "name": "ATM",
    "address": {
      "addressLine1": "Oude Ebbingestraat 19",
      "addressLine3": "Groningen",
      "postalCode": "9712 HA",
      "country": "The Netherlands"
    },
    "latitude": 53.219891,
    "longitude": 6.566965,
    "placeType": "atm"
  },
  {
    "id": "f8b1ec34-9081-4ad8-b91f-50b2554f3a37",
    "name": "ATM",
    "address": {
      "addressLine1": "Vredenburg 2",
      "addressLine3": "Utrecht",
      "postalCode": "3511 BA",
      "country": "The Netherlands"
    },
    "latitude": 52.091881,
    "longitude": 5.115392,
    "placeType": "atm"
  },
  {
    "id": "a9afa62e-6e05-4de0-a9ea-4837e386e08e",
    "name": "ATM",
    "address": {
      "addressLine1": "Johanna Naberstraat 51",
      "addressLine3": "Alkmaar",
      "postalCode": "1827 LB",
      "country": "The Netherlands"
    },
    "latitude": 52.665873,
    "longitude": 4.766152,
    "placeType": "atm"
  },
  {
    "id": "d5d224f1-68d1-47d6-b502-c45f57243e75",
    "name": "ATM",
    "address": {
      "addressLine1": "De Reede 9",
      "addressLine3": "Veendam",
      "postalCode": "9642 MA",
      "country": "The Netherlands"
    },
    "latitude": 53.095879,
    "longitude": 6.85991,
    "placeType": "atm"
  },
  {
    "id": "a1335284-ed0f-42d3-a588-40cf63c65132",
    "name": "ATM",
    "address": {
      "addressLine1": "Ambachtsgaarde 176",
      "addressLine3": "Den Haag",
      "postalCode": "2542 EJ",
      "country": "The Netherlands"
    },
    "latitude": 52.034864,
    "longitude": 4.26514,
    "placeType": "atm"
  },
  {
    "id": "01c955ca-d485-4088-94c3-f37196fcc766",
    "name": "ATM",
    "address": {
      "addressLine1": "Koningsschild 11",
      "addressLine3": "Goirle",
      "postalCode": "5051 TT",
      "country": "The Netherlands"
    },
    "latitude": 51.519197,
    "longitude": 5.055886,
    "placeType": "atm"
  },
  {
    "id": "cbdc31e4-09b8-46b3-819e-4baaf1143eb5",
    "name": "ATM",
    "address": {
      "addressLine1": "Van Harenstraat 66",
      "addressLine3": "Wolvega",
      "postalCode": "8471 JG",
      "country": "The Netherlands"
    },
    "latitude": 52.874863,
    "longitude": 5.997191,
    "placeType": "atm"
  },
  {
    "id": "be702c1d-5577-4750-b527-3a7f3504d221",
    "name": "ATM",
    "address": {
      "addressLine1": "Karel de Groteplein 20",
      "addressLine3": "Deventer",
      "postalCode": "7415 DH",
      "country": "The Netherlands"
    },
    "latitude": 52.268806,
    "longitude": 6.164479,
    "placeType": "atm"
  },
  {
    "id": "90bce638-7bcc-47a6-ac8d-924c6053b802",
    "name": "ATM",
    "address": {
      "addressLine1": "Vierhavensstraat 147",
      "addressLine3": "Rotterdam",
      "postalCode": "3029 BB",
      "country": "The Netherlands"
    },
    "latitude": 51.90742,
    "longitude": 4.437838,
    "placeType": "atm"
  },
  {
    "id": "1a0bdddd-33de-4e27-aad1-a1194f05577e",
    "name": "ATM",
    "address": {
      "addressLine1": "De Burcht 1",
      "addressLine3": "Breda",
      "postalCode": "4834 HE",
      "country": "The Netherlands"
    },
    "latitude": 51.572069,
    "longitude": 4.805414,
    "placeType": "atm"
  },
  {
    "id": "8e1812aa-3e32-4c3d-99cb-bcaba1c2ddfb",
    "name": "ATM",
    "address": {
      "addressLine1": "Kop van het Ruim 1",
      "addressLine3": "Dronten",
      "postalCode": "8251 KD",
      "country": "The Netherlands"
    },
    "latitude": 52.525523,
    "longitude": 5.719787,
    "placeType": "atm"
  },
  {
    "id": "f6cadb0d-eac4-4270-9e5f-24143527d2af",
    "name": "ATM",
    "address": {
      "addressLine1": "Roserije 329",
      "addressLine3": "Maastricht",
      "postalCode": "6228 DR",
      "country": "The Netherlands"
    },
    "latitude": 50.827007,
    "longitude": 5.726303,
    "placeType": "atm"
  },
  {
    "id": "59e9933e-e58b-463e-8f88-e8824d4cf933",
    "name": "ATM",
    "address": {
      "addressLine1": "Benthuizerstraat 54",
      "addressLine3": "Rotterdam",
      "postalCode": "3036 CJ",
      "country": "The Netherlands"
    },
    "latitude": 51.936519,
    "longitude": 4.479839,
    "placeType": "atm"
  },
  {
    "id": "0ba2f84d-d535-47d8-b36e-9ecf90a82ccd",
    "name": "ATM",
    "address": {
      "addressLine1": "Burgemeester Wegstapelplein 3",
      "addressLine3": "Zoetermeer",
      "postalCode": "2711 AK",
      "country": "The Netherlands"
    },
    "latitude": 52.061357,
    "longitude": 4.486531,
    "placeType": "atm"
  },
  {
    "id": "00fd8882-965e-4ffc-8bbf-45919d4a2800",
    "name": "ATM",
    "address": {
      "addressLine1": "De Bongerd 63",
      "addressLine3": "Doetinchem",
      "postalCode": "7006 NH",
      "country": "The Netherlands"
    },
    "latitude": 51.960963,
    "longitude": 6.257282,
    "placeType": "atm"
  },
  {
    "id": "7dcc28c4-4395-4c69-a741-208d203a474b",
    "name": "ATM",
    "address": {
      "addressLine1": "Fortunastraat 17",
      "addressLine3": "Arnhem",
      "postalCode": "6846 ZX",
      "country": "The Netherlands"
    },
    "latitude": 51.950559,
    "longitude": 5.843264,
    "placeType": "atm"
  },
  {
    "id": "0dcb7b46-6a5a-42c0-8cab-65a4d20062f5",
    "name": "ATM",
    "address": {
      "addressLine1": "Amstellandlaan 20",
      "addressLine3": "Weesp",
      "postalCode": "1382 CE",
      "country": "The Netherlands"
    },
    "latitude": 52.310349,
    "longitude": 5.034087,
    "placeType": "atm"
  },
  {
    "id": "84a7e744-ddf9-4151-b5b2-e632ed976d99",
    "name": "ATM",
    "address": {
      "addressLine1": "Schandelerboord 25",
      "addressLine3": "Heerlen",
      "postalCode": "6415 AA",
      "country": "The Netherlands"
    },
    "latitude": 50.890832,
    "longitude": 5.984737,
    "placeType": "atm"
  },
  {
    "id": "a00d877f-ff3b-44eb-93cb-35bc89780664",
    "name": "ATM",
    "address": {
      "addressLine1": "Marie Heinekenplein 28",
      "addressLine3": "Amsterdam",
      "postalCode": "1072 MH",
      "country": "The Netherlands"
    },
    "latitude": 52.357138,
    "longitude": 4.891707,
    "placeType": "atm"
  },
  {
    "id": "9a62e010-6980-426b-bb95-581de519172b",
    "name": "ATM",
    "address": {
      "addressLine1": "Spui 59",
      "addressLine3": "Den Haag",
      "postalCode": "2511 BL",
      "country": "The Netherlands"
    },
    "latitude": 52.077312,
    "longitude": 4.315173,
    "placeType": "atm"
  },
  {
    "id": "7b577e0f-e09d-419c-a262-58e6ab245865",
    "name": "ATM",
    "address": {
      "addressLine1": "Gelreplein 13",
      "addressLine3": "Venlo",
      "postalCode": "5914 RV",
      "country": "The Netherlands"
    },
    "latitude": 51.378201,
    "longitude": 6.179683,
    "placeType": "atm"
  },
  {
    "id": "b3a85e4f-d37b-41bf-b8a0-1da28e7d47b2",
    "name": "ATM",
    "address": {
      "addressLine1": "Willem Kraanstraat 2",
      "addressLine3": "Amsterdam",
      "postalCode": "1063 MG",
      "country": "The Netherlands"
    },
    "latitude": 52.379914,
    "longitude": 4.823107,
    "placeType": "atm"
  },
  {
    "id": "65415144-b067-4a00-abb5-c1478eb10324",
    "name": "ATM",
    "address": {
      "addressLine1": "Vierhoeksingel 7",
      "addressLine3": "Oss",
      "postalCode": "5341 PN",
      "country": "The Netherlands"
    },
    "latitude": 51.769937,
    "longitude": 5.514135,
    "placeType": "atm"
  },
  {
    "id": "ef588ef1-57e0-44e4-b1af-03cc98a4985d",
    "name": "ATM",
    "address": {
      "addressLine1": "Botplein 15",
      "addressLine3": "Almere",
      "postalCode": "1317 SK",
      "country": "The Netherlands"
    },
    "latitude": 52.38928,
    "longitude": 5.231558,
    "placeType": "atm"
  },
  {
    "id": "ac015762-bde5-407e-865d-8d81d96eed86",
    "name": "ATM",
    "address": {
      "addressLine1": "Stokdijkkade 21",
      "addressLine3": "Naaldwijk",
      "postalCode": "2671 GX",
      "country": "The Netherlands"
    },
    "latitude": 51.995073,
    "longitude": 4.211463,
    "placeType": "atm"
  },
  {
    "id": "66a50c24-a963-4a1b-949b-cde919b423ce",
    "name": "ATM",
    "address": {
      "addressLine1": "Rudolf Steinerlaan 51",
      "addressLine3": "Zutphen",
      "postalCode": "7207 PV",
      "country": "The Netherlands"
    },
    "latitude": 52.126107,
    "longitude": 6.244304,
    "placeType": "atm"
  },
  {
    "id": "7f4d480c-dd2f-47aa-b06c-808af7e4377a",
    "name": "ATM",
    "address": {
      "addressLine1": "Goudse Rijweg 707",
      "addressLine3": "Rotterdam",
      "postalCode": "3031 CG",
      "country": "The Netherlands"
    },
    "latitude": 51.9287,
    "longitude": 4.490597,
    "placeType": "atm"
  },
  {
    "id": "55e77c9c-c5e6-4480-b0e5-4de438156cee",
    "name": "ATM",
    "address": {
      "addressLine1": "Binnendoor 4",
      "addressLine3": "Waddinxveen",
      "postalCode": "2741 NP",
      "country": "The Netherlands"
    },
    "latitude": 52.038824,
    "longitude": 4.651009,
    "placeType": "atm"
  },
  {
    "id": "5b4bbcb3-3149-4ec4-943f-9d42ce65998a",
    "name": "ATM",
    "address": {
      "addressLine1": "Rio de Janeiroplein 1",
      "addressLine3": "Almere",
      "postalCode": "1334 HE",
      "country": "The Netherlands"
    },
    "latitude": 52.394916,
    "longitude": 5.281245,
    "placeType": "atm"
  },
  {
    "id": "07970327-c13e-4094-8248-d92ab2d90fe7",
    "name": "ATM",
    "address": {
      "addressLine1": "Tamboerijn 11",
      "addressLine3": "Soest",
      "postalCode": "3766 HA",
      "country": "The Netherlands"
    },
    "latitude": 52.168823,
    "longitude": 5.281462,
    "placeType": "atm"
  },
  {
    "id": "9c2670ee-00be-4d1a-b8f1-e0b5837a09b5",
    "name": "ATM",
    "address": {
      "addressLine1": "Eindhovenseweg 40",
      "addressLine3": "Geldrop",
      "postalCode": "5662 AB",
      "country": "The Netherlands"
    },
    "latitude": 51.424864,
    "longitude": 5.547461,
    "placeType": "atm"
  },
  {
    "id": "b60535bb-93cb-4c67-aaa4-241caa6792c7",
    "name": "ATM",
    "address": {
      "addressLine1": "Hildo Kroplaan 20",
      "addressLine3": "Den Haag",
      "postalCode": "2552 XS",
      "country": "The Netherlands"
    },
    "latitude": 52.054802,
    "longitude": 4.25089,
    "placeType": "atm"
  },
  {
    "id": "69593651-a59e-4eed-82b6-0645e7a85581",
    "name": "ATM",
    "address": {
      "addressLine1": "Kerkstraat 8",
      "addressLine3": "Baarle-Nassau",
      "postalCode": "5111 CJ",
      "country": "The Netherlands"
    },
    "latitude": 51.442342,
    "longitude": 4.929018,
    "placeType": "atm"
  },
  {
    "id": "44bcbd57-a017-47ca-9672-0029eb56056b",
    "name": "ATM",
    "address": {
      "addressLine1": "Scharenburg 21",
      "addressLine3": "Druten",
      "postalCode": "6652 AK",
      "country": "The Netherlands"
    },
    "latitude": 51.883539,
    "longitude": 5.606303,
    "placeType": "atm"
  },
  {
    "id": "eae2a9a0-c342-46ba-833a-17346153dab5",
    "name": "ATM",
    "address": {
      "addressLine1": "Hoofdweg 202",
      "addressLine3": "Paterswolde",
      "postalCode": "9765 CK",
      "country": "The Netherlands"
    },
    "latitude": 53.147261,
    "longitude": 6.5658,
    "placeType": "atm"
  },
  {
    "id": "20ba3554-18c1-4468-9dac-5924da08ad6b",
    "name": "ATM",
    "address": {
      "addressLine1": "Oudeland 84",
      "addressLine3": "Zwijndrecht",
      "postalCode": "3335 VH",
      "country": "The Netherlands"
    },
    "latitude": 51.818912,
    "longitude": 4.610249,
    "placeType": "atm"
  },
  {
    "id": "49ba7dee-0d86-4430-9324-21e5a420fd9a",
    "name": "ATM",
    "address": {
      "addressLine1": "Bisonspoor 1078",
      "addressLine3": "Maarssen",
      "postalCode": "3605 KJ",
      "country": "The Netherlands"
    },
    "latitude": 52.134668,
    "longitude": 5.030684,
    "placeType": "atm"
  },
  {
    "id": "50fba0e4-2e84-46d4-becb-4844a2c050d3",
    "name": "ATM",
    "address": {
      "addressLine1": "Gronausestraat 1130",
      "addressLine3": "Enschede",
      "postalCode": "7534 AS",
      "country": "The Netherlands"
    },
    "latitude": 52.215169,
    "longitude": 6.971231,
    "placeType": "atm"
  },
  {
    "id": "3f4402bc-8d32-443a-ab5d-f194403977b4",
    "name": "ATM",
    "address": {
      "addressLine1": "Hub Dassenplein 5",
      "addressLine3": "Sittard",
      "postalCode": "6131 LB",
      "country": "The Netherlands"
    },
    "latitude": 50.995619,
    "longitude": 5.868096,
    "placeType": "atm"
  },
  {
    "id": "076b808c-0192-4e8e-a8f3-8b1a210433b0",
    "name": "ATM",
    "address": {
      "addressLine1": "Siersteenlaan 464",
      "addressLine3": "Groningen",
      "postalCode": "9743 ES",
      "country": "The Netherlands"
    },
    "latitude": 53.225301,
    "longitude": 6.528791,
    "placeType": "atm"
  },
  {
    "id": "2103fccd-75fd-41ca-a0a8-e13e1c20baa8",
    "name": "ATM",
    "address": {
      "addressLine1": "Wilhelminaplein 8",
      "addressLine3": "Rijen",
      "postalCode": "5121 ES",
      "country": "The Netherlands"
    },
    "latitude": 51.588257,
    "longitude": 4.918961,
    "placeType": "atm"
  },
  {
    "id": "f1f1eba0-f488-402c-afee-3fc95915c343",
    "name": "ATM",
    "address": {
      "addressLine1": "Pieter Calandlaan 212A",
      "addressLine3": "Amsterdam",
      "postalCode": "1069 LA",
      "country": "The Netherlands"
    },
    "latitude": 52.352123,
    "longitude": 4.799517,
    "placeType": "atm"
  },
  {
    "id": "a83b1285-ab04-4b1c-8cc0-574dd15daf96",
    "name": "ATM",
    "address": {
      "addressLine1": "Europaplein 1",
      "addressLine3": "Hulsberg",
      "postalCode": "6336 BE",
      "country": "The Netherlands"
    },
    "latitude": 50.889528,
    "longitude": 5.857602,
    "placeType": "atm"
  },
  {
    "id": "17a76029-191c-4c66-b0d9-dddfa5039bc8",
    "name": "ATM",
    "address": {
      "addressLine1": "Sint Teunislaan 66",
      "addressLine3": "Den Bosch",
      "postalCode": "5231 BR",
      "country": "The Netherlands"
    },
    "latitude": 51.71145,
    "longitude": 5.313257,
    "placeType": "atm"
  },
  {
    "id": "87d7f742-a632-427d-968d-5e6ce625ed49",
    "name": "ATM",
    "address": {
      "addressLine1": "Kruidenhof 26",
      "addressLine3": "Diemen",
      "postalCode": "1112 PS",
      "country": "The Netherlands"
    },
    "latitude": 52.333645,
    "longitude": 4.957176,
    "placeType": "atm"
  },
  {
    "id": "373aec71-0ff0-49ee-9f0d-b70e135b50de",
    "name": "ATM",
    "address": {
      "addressLine1": "Bloemendaalsestraatweg 167",
      "addressLine3": "Santpoort-Zuid",
      "postalCode": "2082 GE",
      "country": "The Netherlands"
    },
    "latitude": 52.41766,
    "longitude": 4.629939,
    "placeType": "atm"
  },
  {
    "id": "4785881b-a03d-4b25-8179-51b36f762390",
    "name": "ATM",
    "address": {
      "addressLine1": "Keizerswaard 33",
      "addressLine3": "Rotterdam",
      "postalCode": "3078 AL",
      "country": "The Netherlands"
    },
    "latitude": 51.887354,
    "longitude": 4.546555,
    "placeType": "atm"
  },
  {
    "id": "0ac0618e-5c4f-475f-b86b-69c279325344",
    "name": "ATM",
    "address": {
      "addressLine1": "Hoofdstraat 232",
      "addressLine3": "Velp",
      "postalCode": "6881 TS",
      "country": "The Netherlands"
    },
    "latitude": 51.995898,
    "longitude": 5.969157,
    "placeType": "atm"
  },
  {
    "id": "170fa0d9-92bb-45b7-a3fe-ce80d54bb8d0",
    "name": "ATM",
    "address": {
      "addressLine1": "Heerestraat 54",
      "addressLine3": "Roden",
      "postalCode": "9301 AH",
      "country": "The Netherlands"
    },
    "latitude": 53.136786,
    "longitude": 6.430102,
    "placeType": "atm"
  },
  {
    "id": "a2bb2e17-25b2-447b-8b9c-a746618a0fb0",
    "name": "ATM",
    "address": {
      "addressLine1": "Sierplein 78",
      "addressLine3": "Amsterdam",
      "postalCode": "1065 LN",
      "country": "The Netherlands"
    },
    "latitude": 52.354997,
    "longitude": 4.82677,
    "placeType": "atm"
  },
  {
    "id": "e260c08c-c77c-4636-ab57-f12db827acc2",
    "name": "ATM",
    "address": {
      "addressLine1": "Piusplein 34",
      "addressLine3": "Tilburg",
      "postalCode": "5038 WN",
      "country": "The Netherlands"
    },
    "latitude": 51.55435,
    "longitude": 5.090764,
    "placeType": "atm"
  },
  {
    "id": "2de503a7-cb20-41bd-b6ad-b474564b0d15",
    "name": "ATM",
    "address": {
      "addressLine1": "De Smidse 16",
      "addressLine3": "Moordrecht",
      "postalCode": "2841 XW",
      "country": "The Netherlands"
    },
    "latitude": 51.986892,
    "longitude": 4.669256,
    "placeType": "atm"
  },
  {
    "id": "33e6304e-1453-48d0-90de-54ba4b13ae0c",
    "name": "ATM",
    "address": {
      "addressLine1": "Mia van IJperenplein 89",
      "addressLine3": "Rotterdam",
      "postalCode": "3065 JK",
      "country": "The Netherlands"
    },
    "latitude": 51.928878,
    "longitude": 4.546419,
    "placeType": "atm"
  },
  {
    "id": "60096ab0-62c0-4dec-9999-d0201ec9144a",
    "name": "ATM",
    "address": {
      "addressLine1": "Ganker 40",
      "addressLine3": "Nibbixwoud",
      "postalCode": "1688 CT",
      "country": "The Netherlands"
    },
    "latitude": 52.69202,
    "longitude": 5.057032,
    "placeType": "atm"
  },
  {
    "id": "b7aad090-22d4-401d-bf9f-500bbda373f8",
    "name": "ATM",
    "address": {
      "addressLine1": "Johan de Wittstraat 27",
      "addressLine3": "Dordrecht",
      "postalCode": "3311 KG",
      "country": "The Netherlands"
    },
    "latitude": 51.810505,
    "longitude": 4.668016,
    "placeType": "atm"
  },
  {
    "id": "4a2c8f1b-7dcb-4750-a8e7-b518e87c5e23",
    "name": "ATM",
    "address": {
      "addressLine1": "Amsterdamsestraatweg 367",
      "addressLine3": "Utrecht",
      "postalCode": "3551 CK",
      "country": "The Netherlands"
    },
    "latitude": 52.104271,
    "longitude": 5.094193,
    "placeType": "atm"
  },
  {
    "id": "06e7f069-9b84-445d-9ff1-637a2335ea73",
    "name": "ATM",
    "address": {
      "addressLine1": "Gildeplein 42",
      "addressLine3": "Purmerend",
      "postalCode": "1445 BM",
      "country": "The Netherlands"
    },
    "latitude": 52.505756,
    "longitude": 4.985097,
    "placeType": "atm"
  },
  {
    "id": "78334371-eed4-4fbb-b4d0-00e8ea8c0bef",
    "name": "ATM",
    "address": {
      "addressLine1": "Sint Rochusstraat 20",
      "addressLine3": "Bunde",
      "postalCode": "6241 CD",
      "country": "The Netherlands"
    },
    "latitude": 50.8958181,
    "longitude": 5.7336048,
    "placeType": "atm"
  },
  {
    "id": "de48e8c9-597e-41e3-8907-56dcf7510782",
    "name": "ATM",
    "address": {
      "addressLine1": "van Nijvenheimstraat 62",
      "addressLine3": "Venlo",
      "postalCode": "5912 BN",
      "country": "The Netherlands"
    },
    "latitude": 51.360768,
    "longitude": 6.16235,
    "placeType": "atm"
  },
  {
    "id": "422e23ab-f42b-405b-ba3e-36f59afb6a08",
    "name": "ATM",
    "address": {
      "addressLine1": "Heyhoefpromenade 105-107",
      "addressLine3": "Tilburg",
      "postalCode": "5043 RB",
      "country": "The Netherlands"
    },
    "latitude": 51.577654,
    "longitude": 5.004488,
    "placeType": "atm"
  },
  {
    "id": "829af2f3-ac56-4c6f-b3aa-248f7f2ff3c4",
    "name": "ATM",
    "address": {
      "addressLine1": "Balinkesstraat 8",
      "addressLine3": "Winterswijk",
      "postalCode": "7101 DL",
      "country": "The Netherlands"
    },
    "latitude": 51.972091,
    "longitude": 6.716405,
    "placeType": "atm"
  },
  {
    "id": "6ac8328d-b3c8-4d1a-b461-b93ad40da768",
    "name": "ATM",
    "address": {
      "addressLine1": "Planetenbaan 17-19",
      "addressLine3": "Bilthoven",
      "postalCode": "3721 KA",
      "country": "The Netherlands"
    },
    "latitude": 52.119968,
    "longitude": 5.184863,
    "placeType": "atm"
  },
  {
    "id": "3a6ac3f9-8742-400c-8d9e-5fcf573d3188",
    "name": "ATM",
    "address": {
      "addressLine1": "Markt 53",
      "addressLine3": "Burgum",
      "postalCode": "9251 JR",
      "country": "The Netherlands"
    },
    "latitude": 53.191901,
    "longitude": 5.992125,
    "placeType": "atm"
  },
  {
    "id": "7dc9d7ea-b8a5-45da-9005-882b8cae1bdb",
    "name": "ATM",
    "address": {
      "addressLine1": "Orionstraat 149",
      "addressLine3": "Eindhoven",
      "postalCode": "5632 DC",
      "country": "The Netherlands"
    },
    "latitude": 51.470234,
    "longitude": 5.494519,
    "placeType": "atm"
  },